time,e_d_x,e_p_x,e_i_x,e_d_y,e_p_y,e_i_y,e_d_z,e_p_z,e_i_z,roll,pitch,yaw,thrust,x,y,z
19.150935649871826,0,-40.0,0.0,0,-40.0,0.0,0,80.0,0.0,1453.358492406526,1546.4877304465494,1500,1727.3841495162562,0.0,0.0,0.0
19.161438941955566,-2241.0,-63.53333956817775,-0.667036567026204,2691.0,-11.642123508331839,-0.1226664457806847,-815.0,71.40096965597563,0.753554182718138,1600.0,1400.0,1500,2050.0,23.533339568177748,-28.35787649166816,8.599030344024369
19.16817855834961,-732.0,-68.46829276494839,-1.1287477812261761,889.0,-5.6954624812916705,-0.16078552889311998,-270.0,69.59774864850105,1.2182024670712337,1400.0,1400.0,1500,2050.0,28.468292764948394,-34.30453751870833,10.402251351498949
19.17532777786255,-315.0,-70.71803709846861,-1.634208528509871,379.0,-2.984501218740313,-0.18211811387929042,-115.0,68.77569703384637,1.7098294327057662,1400.0,1400.0,1500,2050.0,30.71803709846862,-37.01549878125969,11.224302966153624
19.182523488998413,-184.0,-72.04006288355589,-2.1525021327822804,221.0,-1.391448782485142,-0.19216607433325608,-67.0,68.29263172946771,2.2040277450486014,1400.0,1400.0,1500,2050.0,32.0400628835559,-38.60855121751486,11.707368270532285
19.18939185142517,-127.0,-72.91137164719957,-2.6531274074566245,152.0,-0.34151423180510676,-0.19452507127860327,-46.0,67.97425743006664,2.6727633082433098,1400.0,1400.0,1500,1893.783975625999,32.91137164719957,-39.65848576819489,12.025742569933364
19.19661545753479,-134.0,-73.88225177697839,-3.1869822268986305,161.0,0.8131520738435754,-0.18868394511492198,264.0,69.87188107570768,3.1754578872105363,1400.0,1400.0,1500,2050.0,33.88225177697839,-40.813152073843575,10.12811892429232
19.20357346534729,-48.0,-74.21567168059826,-3.7032692838922334,58.0,1.219107542614779,-0.18018801504627888,-106.0,69.132542322358,3.657768290423284,1400.0,1405.790433913186,1500,1556.2689393725932,34.215671680598255,-41.21910754261478,10.867457677641992
19.209998846054077,-37.0,-74.45599990407739,-4.182138973216706,46.0,1.5117373890687773,-0.17054372863864073,-84.0,68.59694546808228,4.0939995045818565,1400.0,1426.3306464190093,1500,1579.4462191441573,34.45599990407739,-41.51173738906878,11.40305453191771
19.217520713806152,-23.0,-74.62949014491005,-4.743171853465529,28.0,1.7230075819915172,-0.15742287183646114,-51.0,68.20676016567386,4.614473358137192,1400.0,1455.7640459585334,1500,1624.8004148674377,34.62949014491006,-41.72300758199152,11.793239834326146
19.224488019943237,-18.0,-74.75434042030673,-5.263990405426045,22.0,1.8750724076469538,-0.14447758420155607,-41.0,67.92203405261694,5.083059320753761,1400.0,1464.5741693380264,1500,1638.883946017741,34.754340420306725,-41.875072407646954,12.07796594738307
19.23168635368347,-12.0,-74.84361064570842,-5.802579096212268,15.0,1.9838293046606736,-0.1301878591476715,-29.0,67.71434861095024,5.571038709256498,1400.0,1475.172242123544,1500,1658.8764667536764,34.84361064570843,-41.983829304660674,12.285651389049763
19.238555669784546,-9.0,-74.90682554038074,-6.317244914050625,11.0,2.060871587200097,-0.1160202710698098,-22.0,67.56310161835543,6.035392635522293,1400.0,1480.9930179567732,1500,1670.2195839616977,34.906825540380744,-42.0608715872001,12.43689838164457
19.245271921157837,-45.0,-75.21000405217374,-6.822804562146468,59.0,2.4532310892494493,-0.09964084711214208,235.0,69.12814436900707,6.49614760320703,1400.0,1433.6388458647045,1500,2050.0,35.210004052173744,-42.45323108924945,10.871855630992922
19.253015279769897,5.0,-75.17050492720088,-7.404769206577598,-7.0,2.398994376749407,-0.08105427797770434,-68.0,68.59776043036595,7.027308307222999,1411.1873027813353,1507.9503196662154,1500,1564.5820342441855,35.170504927200874,-42.39899437674941,11.402239569634046
19.263004779815674,3.0,-75.13951219424592,-8.155196220524314,-4.0,2.356783761218729,-0.05747241531566849,-39.0,68.2102313812529,7.710792290379989,1411.6911888346065,1503.4802871786997,1500,1628.837467564778,35.13951219424593,-42.35678376121873,11.789768618747102
19.27048945426941,3.0,-75.11481306640816,-8.717352416678564,-4.0,2.323458621117709,-0.04007432855003494,-38.0,67.92738217688081,8.219449559717518,1412.0992467933545,1503.8680423392834,1500,1630.4208942434543,35.11481306640816,-42.32345862111771,12.072617823119188
19.27725863456726,-70.0,-75.59022044614463,-9.229252512988294,88.0,2.9169417558574864,-0.02036240563552407,423.0,70.77983138269207,8.69676535052797,1400.0,1417.3783823587235,1500,2050.0,35.59022044614462,-42.916941755857486,9.220168617307928
19.283762216567993,23.0,-75.44028031793735,-9.719974494016443,-29.0,2.7281006736980586,-0.002655102411733914,-150.0,69.80635752827273,9.15012428184772,1431.4673875548797,1547.6533672651622,1500,1480.0,35.44028031793736,-42.72810067369806,10.193642471727278
19.290733814239502,16.0,-75.32868928921432,-10.24517172838107,-20.0,2.5876581115021224,0.015376988558063229,-102.0,69.09471484535558,9.631528312629902,1424.6888555151927,1529.8065660803115,1500,1492.4242993268997,35.328689289214324,-42.58765811150212,10.905285154644421
19.297858476638794,12.0,-75.24522085646755,-10.781089125557159,-15.0,2.482705042452089,0.03311751304730663,-73.0,68.57473953878072,10.122209265426335,1421.0712628030024,1520.0632930258582,1500,1555.7312385981525,35.245220856467554,-42.48270504245209,11.425260461219283
19.305293083190918,8.0,-75.1823826840795,-11.340004710710806,-11.0,2.403783956440229,0.050975519544374445,-51.0,68.19504574755094,10.627976917954399,1418.4073219810825,1513.3254325970418,1500,1602.3955988398502,35.18238268407949,-42.40378395644023,11.80495425244906
19.31554126739502,5.0,-75.13468657443264,-12.109927164822171,-6.0,2.3439672794745334,0.07501369335326326,-27.0,67.9180096385263,11.325454360972417,1415.4154208354917,1505.8382535570606,1500,1655.9334049564125,35.13468657443264,-42.34396727947453,12.081990361473705
19.322700262069702,5.0,-75.0981127498919,-12.647536249292028,-6.0,2.2981810921464145,0.09146690748246623,-28.0,67.71608886373593,11.81039492827513,1415.985830100061,1506.7423278640642,1500,1653.0565514563957,35.098112749891904,-42.298181092146415,12.28391113626407
19.330074787139893,4.0,-75.06971700868891,-13.20117555541523,-5.0,2.2627092120585814,0.10817651058569921,-20.0,67.56912390209474,12.309861137081299,1415.0777010008226,1504.3632351006395,1500,1671.6071924307523,35.06971700868892,-42.26270921205858,12.430876097905255
19.3364520072937,4.0,-75.04734281079439,-13.679894231243878,-4.0,2.2348297395785863,0.12238215607226974,-17.0,67.46236048800445,12.737236544425823,1414.935941051589,1503.7658947766795,1500,1678.4252696142116,35.0473428107944,-42.234829739578586,12.537639511995545
19.343783855438232,2.0,-75.02941035409678,-14.229604929414872,-3.0,2.2125487955860876,0.13867544207377738,-10.0,67.38500107753737,13.234361714261448,1414.1243760029442,1501.7799956516276,1500,1692.9402991472075,35.02941035409678,-42.21254879558609,12.61499892246264
19.35173797607422,2.0,-75.01476209952003,-14.82640659102521,-2.0,2.1944055195997123,0.1561164054377529,-7.0,67.32914415830417,13.769504536242255,1413.659120012454,1500.7166365039554,1500,1701.1052203892668,35.014762099520034,-42.19440551959971,12.670855841695827
19.357775449752808,2.0,-75.00254966167947,-15.27932192044125,-2.0,2.1793292869085477,0.1692589804592737,-7.0,67.2890077318483,14.1751826030956,1413.9823745872122,1501.0481457705112,1500,1702.1082251574358,35.00254966167947,-42.17932928690855,12.710992268151703
19.3649959564209,1.0,-74.99215099995655,-15.820517174437548,-2.0,2.1665351760953797,0.18492157420773928,-4.0,67.2603609234265,14.66141378794992,1413.470005568225,1500.0059722064334,1500,1708.6592791096816,34.99215099995656,-42.16653517609538,12.739639076573495
19.373127698898315,1.0,-74.98310979843222,-16.430421409772734,-1.0,2.1554474469661216,0.20243883979572103,-2.0,67.24010797923847,15.20803271728077,1413.1886827406095,1499.4353711623676,1500,1712.5410597100743,34.98310979843223,-42.15544744696612,12.759892020761523
19.379077672958374,1.0,-74.97509109138662,-16.87677151328262,-2.0,2.1456435261526536,0.21515932260319323,-2.0,67.22598381639128,15.605765639931047,1413.5566990287539,1499.8629824690913,1500,1713.002882968287,34.975091091386616,-42.145643526152654,12.774016183608719
19.385833740234375,-52.0,-75.32606106366435,-17.385894959054273,60.0,2.553461860727559,0.23253365885619345,305.0,69.30052438863996,16.07746742186466,1400.0,1436.856449688502,1500,2050.0,35.32606106366436,-42.55346186072756,10.699475611360041
19.393256664276123,-21.0,-75.48123008876186,-17.945736493390193,29.0,2.770712762136391,0.25303042675465004,149.0,70.40290916522741,16.598871108244918,1400.7168321457273,1462.2166816847011,1500,2050.0,35.481230088761855,-42.77071276213639,9.597090834772594
19.40003228187561,22.0,-75.33499417970421,-18.456429063483235,-27.0,2.590315734359528,0.270523980748702,-128.0,69.53900699099331,17.067570498569363,1431.5246003341138,1541.9776691212094,1500,1480.0,35.33499417970421,-42.59031573435953,10.460993009006689
19.407453298568726,15.0,-75.22667186384439,-19.01438254873665,-18.0,2.456725887845117,0.2888098573786832,-85.0,68.90737562814883,17.581529033561345,1424.6690437054137,1525.5487594033266,1500,1538.1096863947266,35.226671863844395,-42.45672588784512,11.092624371851176
19.414198875427246,12.0,-75.14612418643378,-19.52162691346708,-15.0,2.3574251920983684,0.3046648376671656,-69.0,68.44573670691169,18.040754563391612,1422.204917510586,1520.1293904123554,1500,1572.147376294094,35.146124186433774,-42.35742519209837,11.554263293088313
19.4208984375,9.0,-75.0859297151964,-20.02474136790717,-11.0,2.283250818935471,0.31992242365833923,-50.0,68.10850897166473,18.49607744689397,1419.6832435223046,1514.1193806414435,1500,1612.0827636645308,35.0859297151964,-42.28325081893547,11.89149102833527
19.428241729736328,6.0,-75.04065593161452,-20.575482685547207,-8.0,2.227495561113372,0.33639163162363855,-33.0,67.86233128915813,18.997711024071272,1417.3484349523696,1508.5480465340565,1500,1649.8410406647836,35.04065593161452,-42.22749556111337,12.13766871084187
19.435531854629517,5.0,-75.00632600389667,-21.121984160566445,-6.0,2.1852494802681477,0.35228173493963527,-25.0,67.68278621123746,19.489723084136692,1416.1672349496246,1505.9446228702834,1500,1669.0020579407715,35.006326003896675,-42.18524948026815,12.317213788762546
19.442463636398315,4.0,-74.98002854179788,-21.642301407656205,-5.0,2.1529180883515195,0.3671693625971793,-19.0,67.55200211117787,19.95698027037057,1415.4795439898292,1504.2754078107162,1500,1682.0058731304287,34.98002854179787,-42.15291808835152,12.447997888822133
19.450480461120605,-42.0,-75.31745300391448,-22.246108226917904,49.0,2.544063479579968,0.3875537556593522,248.0,69.53881492836207,20.514079436101717,1400.0,1445.3506661940078,1500,2050.0,35.31745300391448,-42.54406347957997,10.461185071637923
19.45633316040039,19.0,-75.20511099909649,-22.686350777377008,-23.0,2.4123781562499005,0.40164852301457016,-108.0,68.90959686549294,20.916712981591658,1429.8423594352685,1534.0031632479352,1500,1491.3049690275286,35.20511099909649,-42.4123781562499,11.090403134507058
19.4635169506073,12.0,-75.12177490682492,-23.225884475290464,-14.0,2.3146568337541424,0.4183024693973389,-64.0,68.44964049827144,21.40915890397481,1422.3559032311186,1518.1643365338932,1500,1586.23931276241,35.12177490682492,-42.31465683375414,11.550359501728561
19.470320224761963,-43.0,-75.41743984226645,-23.738969994580213,50.0,2.6579308944973405,0.436393340058147,256.0,70.19507032340047,21.887066663678212,1400.0,1444.0622176120917,1500,2050.0,35.41743984226644,-42.65793089449734,9.804929676599523
19.47763729095459,20.0,-75.27466841067766,-24.28940078837949,-23.0,2.491367380785846,0.45465016355397225,-110.0,69.38958897594107,22.395506261284297,1430.1785924628057,1534.257568536752,1500,1489.3269047097783,35.27466841067766,-42.491367380785846,10.610411024058934
19.48456883430481,15.0,-75.16911839058285,-24.810797225389592,-18.0,2.368187909607414,0.47103374199108083,-85.0,68.80059155736011,22.871449150506635,1425.828659544663,1525.3634215186307,1500,1542.2649712021164,35.16911839058285,-42.368187909607414,11.199408442639896
19.49138832092285,-41.0,-75.44853298377274,-25.32533547475536,48.0,2.692840893986414,0.4894174371544278,242.0,70.45126395837575,23.352612868575623,1400.0,1446.3653612373607,1500,2050.0,35.44853298377273,-42.692840893986414,9.548736041624249
19.498186826705933,23.0,-75.29397713027349,-25.837293819638866,-27.0,2.5127779693369803,0.5064538434602263,-129.0,69.5767143902284,23.824320081596074,1433.6676209760767,1541.6703393249554,1500,1480.0,35.29397713027349,-42.51277796933698,10.423285609771593
19.505293130874634,16.0,-75.17985745646057,-26.371508905534487,-19.0,2.3797849521846572,0.5233919862790511,-90.0,68.937145439478,24.3147836619802,1426.731300194923,1526.9025657113727,1500,1533.8035763207638,35.17985745646057,-42.37978495218466,11.062854560521995
19.512457609176636,12.0,-75.09535552225096,-26.909671183778464,-14.0,2.281269292561632,0.5396996495287525,-65.0,68.46958055049467,24.804157127933724,1422.6417973911744,1518.5081907660206,1500,1586.7641612776704,35.095355522250955,-42.28126929256163,11.530419449505333
19.519707679748535,9.0,-75.03255159937993,-27.45300057935312,-10.0,2.208012495312836,0.5558631931479288,-47.0,68.12791957578641,25.3038718471694,1419.93302645993,1512.4166102652723,1500,1627.8803278905682,35.03255159937992,-42.208012495312836,11.872080424213598
19.52652382850647,7.0,-74.98564785488719,-27.96436420144473,-8.0,2.1532659185354674,0.5704724079887614,-37.0,67.87841602692228,25.76446974339777,1418.337742676966,1509.4248962731954,1500,1649.505101543384,34.9856478548872,-42.15326591853547,12.121583973077712
19.533275365829468,5.0,-74.95039972880394,-28.470716274807888,-6.0,2.1120889065858037,0.5846617564980194,-27.0,67.69636647067003,26.218522234956055,1416.955965587143,1506.4927369874292,1500,1670.8902692614367,34.95039972880394,-42.112088906585804,12.303633529329966
19.54071807861328,4.0,-74.92369970339689,-29.028280399592866,-4.0,2.08086430431198,0.6001604425414503,-18.0,67.56368717667154,26.721556546048692,1415.6196333264038,1503.6282622664346,1500,1691.8492746619586,34.923699703396885,-42.08086430431198,12.436312823328462
19.575018405914307,-0.0,-74.93945086267004,-31.598620890197196,2.0,2.147407377741324,0.6738351378101657,8.0,67.83575306481893,29.049137570772558,1412.7462208337222,1494.8050447100518,1500,1752.5116920288958,34.93945086267005,-42.147407377741324,12.164246935181074
19.61277198791504,-6.0,-75.16862331217385,-34.436433987910064,8.0,2.464240242554318,0.7668684463562877,38.0,69.27966826725012,31.664693207683726,1408.398705658557,1485.9723018202274,1500,1827.9670830907344,35.16862331217386,-42.46424024255432,10.720331732749884
19.658003091812134,-4.0,-75.34148836472764,-37.84424860151802,5.0,2.7022473486423806,0.8890927884064335,24.0,70.37522756904825,34.847842437641035,1409.9905901343773,1489.7888828052296,1500,1802.9058636126206,35.34148836472763,-42.70224734864238,9.62477243095175
19.70640277862549,-1.0,-75.41233336076388,-41.49378636461321,4.0,2.8932735346932077,1.0292139272419187,14.0,71.07626599477823,38.291012551780355,1412.2996996128597,1491.2945242333678,1500,1786.2272087286435,35.41233336076388,-42.89327353469321,8.923734005221782
19.74348545074463,1.0,-75.37737355278999,-44.28939413469818,1.0,2.9358634697977237,1.1379988939869647,-2.0,71.00306232991838,40.92074556936297,1414.0095889617473,1495.005252630594,1500,1752.2345027984077,35.37737355278999,-42.935863469797724,8.996937670081625
19.78128147125244,-8.0,-75.69137048598947,-47.149901893729044,12.0,3.4031531931258456,1.2667316433588145,59.0,73.24176723505985,43.69300921136499,1408.1048889278889,1480.3508295762117,1500,1898.445243876893,35.69137048598947,-43.403153193125846,6.758232764940148
19.817984580993652,8.0,-75.413773631444,-49.91774998314376,-6.0,3.199988325203357,1.3841628555492758,-38.0,71.86085221652388,46.33002910045893,1419.9832026186373,1504.2743536295416,1500,1680.4882152529121,35.413773631443995,-43.19998832520336,8.139147783476119
19.856297254562378,11.0,-74.9896904222165,-52.7908412711808,-5.0,2.994800168288414,1.4989159371204905,-45.0,70.11883431903043,49.01677002813474,1424.7008624023374,1504.3043552742809,1500,1659.8531271453237,34.9896904222165,-42.994800168288414,9.881165680969575
19.893358945846558,7.0,-74.72413371868488,-55.56027967778404,1.0,3.0350689315019466,1.6113869761664004,-15.0,69.5686445554469,51.594819685931995,1422.3626273517923,1494.9033931269553,1500,1728.5816211958868,34.72413371868488,-43.03506893150195,10.431355444553112
19.941799640655518,3.0,-74.57411770085875,-59.17264841441325,6.0,3.346704496009295,1.7735132422717281,17.0,70.37017837244517,55.00366713035544,1420.1150599463413,1487.465192900691,1500,1804.011874913553,34.57411770085875,-43.346704496009295,9.629821627554831
19.99035382270813,12.0,-73.96836433248694,-62.76424529037304,-3.0,3.1943278867250484,1.9286028425612372,-35.0,68.68068667735368,58.33702621564083,1429.0740741974632,1500.753253843699,1500,1687.6820393769099,33.96836433248695,-43.19432788672505,11.319313322646325
20.028006553649902,-1.0,-74.00746743850993,-65.55081090476202,21.0,3.996025097018368,2.079076485821974,85.0,71.86449915823385,61.04449717923455,1421.8180713928516,1469.1666462160142,1500,1963.9475545904068,34.00746743850994,-43.99602509701837,8.135500841766142
20.064873218536377,10.0,-73.62560914730724,-68.26503624197964,11.0,4.39386504426863,2.2411264907090573,30.0,72.98684262990848,63.73646194410652,1432.6047876358473,1480.7957156230377,1500,1846.3874850299062,33.62560914730725,-44.39386504426863,7.013157370091514
20.110015869140625,18.0,-72.82114673754205,-71.55268834021119,-1.0,4.327269955907283,2.43629966394083,-27.0,71.77417355173684,66.97220897215323,1439.2900859440374,1497.0279538374255,1500,1719.2923233668516,32.82114673754205,-44.32726995590728,8.225826448263168
20.147664308547974,17.0,-72.18018551647415,-74.26981549909395,9.0,4.657730421712351,2.6118014196188684,21.0,72.55725706640872,69.70747465999305,1442.4560102602381,1483.0197268703585,1500,1827.249930683563,32.18018551647415,-44.65773042171235,7.44274293359128
20.18480086326599,30.0,-71.07913338060536,-76.90958519787995,-6.0,4.443805039741044,2.776835385547514,-50.0,70.71020206975524,72.33431831407749,1456.9816497107397,1503.117401877043,1500,1668.312851552158,31.079133380605352,-44.443805039741044,9.289797930244752
20.22150945663452,33.0,-69.87072712669864,-79.47425806506317,-9.0,4.122383143608225,2.9282389345885775,-58.0,68.56476977000395,74.8518557573409,1462.7264693630527,1508.0287956162974,1500,1645.4781540864512,29.87072712669864,-44.122383143608225,11.435230229996057
20.266715049743652,19.0,-69.02808844118,-82.59515809886288,10.0,4.557025162735179,3.1339779453734473,41.0,70.40641716020912,78.02896265505161,1449.2262227630251,1482.396534263915,1500,1871.8999196599475,29.02808844118,-44.55702516273518,9.593582839790884
20.305006742477417,32.0,-67.81852660243311,-85.19176940483516,-1.0,4.526247000721014,3.3074132311724447,3.0,70.50259731911065,80.73161847350283,1466.0770888322438,1495.9767022905594,1500,1787.7325988323344,27.818526602433103,-44.526247000721014,9.497402680889357
20.342506170272827,43.0,-66.21086885957229,-87.6748601035239,-15.0,3.971811096250349,3.4562525505625845,-64.0,68.09551265849228,83.28248241979514,1481.8825675359542,1517.3238428953507,1500,1638.8833719495624,26.210868859572287,-43.97181109625035,11.904487341507721
20.380337476730347,45.0,-64.51841434510234,-90.11552218487995,-13.0,3.476774603072336,3.5878887498680463,-48.0,66.27365525042322,85.7929247592601,1486.9848869577777,1515.0461620085455,1500,1670.9126542746055,24.518414345102347,-43.476774603072336,13.726344749576775
20.417889833450317,41.0,-62.9770371621499,-92.48027817081126,2.0,3.553361531670589,3.7213317799722136,38.0,67.6892900359536,88.3349139551179,1485.0613322167912,1493.4163035230447,1500,1861.731930092878,22.977037162149895,-43.55336153167059,12.310709964046401
20.46352529525757,42.0,-61.05118083945874,-95.26671178422109,-12.0,2.9834607306283587,3.8573930515147756,-34.0,66.14634959833343,91.35023712749675,1487.5776247585134,1514.465828993391,1500,1707.2544199235017,21.051180839458734,-42.98346073062836,13.853650401666565
20.501165866851807,49.0,-59.21075336537561,-97.49515604654559,-0.0,2.9701921981806194,3.9692940489065487,46.0,67.8958968369877,93.90937402428656,1499.4416862065807,1497.2422506636728,1500,1886.4382117380133,19.21075336537561,-42.97019219818062,12.104103163012303
20.53830623626709,61.0,-56.92743356437107,-99.6094483864325,-25.0,2.0307007979294553,4.044711153459168,-76.0,65.09215416152168,96.32643958133596,1521.2655110442963,1535.8291796273013,1500,1623.6607782315778,16.927433564371075,-42.030700797929455,14.90784583847833
20.575615406036377,-10.0,-57.30167134627638,-101.74754475928363,8.0,2.3215441483908563,4.131239138835,20.0,65.82174900220447,98.77877328749472,1422.5227784450249,1486.9968971361857,1500,1845.7988857986634,17.301671346276375,-42.321544148390856,14.178250997795528
20.613269090652466,10.0,-56.92284168004395,-103.89099448759679,-2.0,2.2633903405716964,4.21647383829955,-7.0,65.55001648079299,101.24742615655381,1448.0567011307228,1499.519671393548,1500,1780.1553931858505,16.922841680043952,-42.263390340571696,14.449983519207006
20.651355266571045,93.0,-53.37664789771254,-105.92357601377485,-7.0,1.9852474724930715,4.292143014444149,99.0,69.3420154641944,103.89201895710293,1559.0180988037516,1506.8478403014747,1500,2026.156910773276,13.376647897712537,-41.98524747249307,10.657984535805598
20.6892192363739,90.0,-49.96514522801154,-107.81545476388361,-31.0,0.8163699976784926,4.32305499657308,-40.0,67.83911439589204,106.46054774319941,1568.8772569328005,1542.927994119488,1500,1732.2561477895838,9.965145228011535,-40.81636999767849,12.160885604107964
20.727118253707886,86.0,-46.70189843704348,-109.58545536068016,-20.0,0.06349852381029564,4.3254617098983825,18.0,68.51353515452622,109.05730674863035,1562.3270076841409,1526.239965047477,1500,1856.112706419454,6.701898437043483,-40.063498523810296,11.486464845473778
20.76474642753601,83.0,-43.587130696016054,-111.22555949117906,-30.0,-1.060737527527884,4.285536713347513,-34.0,67.22149320685782,111.58743396153152,1565.2184835721412,1543.3189331110048,1500,1746.7012281601988,3.5871306960160516,-38.939262472472116,12.778506793142189
20.801499605178833,83.0,-40.53684605630553,-112.71541739536619,-28.0,-2.076997828178179,4.209186577748337,-20.0,66.50300649488199,114.03281993944326,1567.7229036011217,1540.5749689200068,1500,1779.8328252228355,0.5368460563055301,-37.92300217182182,13.496993505118006
20.838590145111084,-9.0,-40.865741190402865,-114.23110108509012,6.0,-1.842434127283802,4.140878253762012,4.0,66.66342707631334,116.50436934646646,1441.294020899339,1493.4261390503898,1500,1827.151173372693,0.8657411904028651,-38.1575658727162,13.336572923686662
20.87595272064209,17.0,-40.23715747983015,-115.73447451386916,-3.0,-1.9626613979128607,4.067554252194946,-2.0,66.57477103993085,118.99052031758238,1476.4434722295953,1506.5007857701753,1500,1807.1806316684454,0.23715747983014912,-38.03733860208714,13.425228960069141
20.91300106048584,10.0,-39.88050587049886,-117.21205711452842,-1.0,-1.982500196700947,3.994123399767827,-0.0,66.55681227288115,121.45549869341234,1467.1400609078726,1502.8540156349643,1500,1815.268940276052,-0.11949412950113913,-38.01749980329905,13.44318772711885
20.94998526573181,12.0,-39.447254038322605,-118.67117055343688,-1.0,-2.0309924227430542,3.9190566975585166,-1.0,66.5188950733561,123.91342685387804,1470.4470340813823,1503.960576093357,1500,1816.1582635345633,-0.5527459616773959,-37.969007577256946,13.481104926643889
20.992475986480713,10.0,-39.03622021684161,-120.32981976488284,-1.0,-2.07155186768869,3.8310344717352387,-1.0,66.48672148089,126.73843216315386,1468.1748239205403,1503.5141288128425,1500,1820.139717803123,-0.9637797831583832,-37.92844813231131,13.51327851911
21.041069984436035,9.0,-38.619393658180485,-122.20636159521078,-1.0,-2.1145497698419504,3.7282074472380864,-1.0,66.45300479552775,129.9713884392241,1467.188527501545,1503.460727903164,1500,1823.9247693018287,-1.3806063418195178,-37.88545023015805,13.546995204472259
21.079373598098755,161.0,-32.43712808322233,-123.44876668234077,-67.0,-4.663257688089693,3.549602279838327,-79.0,63.427443200861646,132.40069212955254,1600.0,1598.31573950881,1500,1770.325129305363,-7.562871916777668,-35.33674231191031,16.572556799138354
21.124249696731567,113.0,-27.371174408080098,-124.67722177229693,-48.0,-6.8102150774571655,3.2441942275823665,-65.0,60.493147755699,135.11211464414092,1600.0,1576.2484700360278,1500,1729.8981528155998,-12.628825591919902,-33.189784922542835,19.506852244301
21.161864042282104,121.0,-22.82952432822026,-125.53583052947796,-43.0,-8.436742872855362,2.926584139500771,-23.0,59.62696560892519,137.35832738267217,1600.0,1567.6055063684234,1500,1827.7838559596337,-17.17047567177974,-31.563257127144638,20.37303439107481
21.199515342712402,93.0,-19.311684164407115,-126.26303263705304,-36.0,-9.783489090301558,2.5585239534635016,-34.0,58.35834401809886,139.55251999523773,1600.0,1560.6724431060013,1500,1779.1315272025204,-20.688315835592885,-30.216510909698442,21.64165598190114
21.244898319244385,69.0,-16.192969373603574,-126.99789076118516,-28.0,-11.068893834405579,2.0562321068805924,-36.0,56.747151501814386,142.12756345987114,1576.3963709855714,1552.4201273250942,1500,1756.085499384985,-23.807030626396426,-28.93110616559442,23.252848498185614
21.282766580581665,75.0,-13.351917919320819,-127.50345374478314,-30.0,-12.214414418466841,1.5932391752407333,-30.0,55.60611627141863,144.23643895275256,1587.8488282684214,1555.8640537684632,1500,1773.2362555752254,-26.64808208067918,-27.78558558153316,24.393883728581372
21.330646753311157,2.0,-13.232426431346173,-128.13701829823367,2.0,-12.116007397177182,1.0130908727781365,2.0,55.70279111192947,146.90381694663398,1486.7570259178212,1510.5692037780616,1500,1817.126714235908,-26.767573568653827,-27.88399260282282,24.297208888070532
21.36831784248352,88.0,-9.93438445281921,-128.51131185729034,-41.0,-13.669252120043193,0.4986408487909819,-68.0,53.149704867004345,148.90290693639363,1600.0,1575.7148952138396,1500,1709.7444461459165,-30.06561554718079,-26.330747879956807,26.85029513299565
21.40586829185486,74.0,-7.156877949417108,-128.780018301068,-39.0,-15.119532380281786,-0.06956940266114864,-80.0,50.13876343954914,150.7883416413505,1599.7826198632756,1575.372123170793,1500,1668.5306390261817,-32.84312205058289,-24.880467619718214,29.86123656045086
21.451927423477173,62.0,-4.301306874659403,-128.97813070953296,-24.0,-16.203627859583985,-0.8159214737262428,-23.0,49.100001123648916,153.0495289842429,1579.6160372155578,1551.0118057941306,1500,1776.5214450846065,-35.6986931253406,-23.796372140416015,30.899998876351084
21.48877263069153,65.0,-1.9084958720210707,-129.04846010088542,-30.0,-17.324753216176937,-1.4537310169471276,-57.0,47.007600623010255,154.7794379700874,1590.2651297964953,1564.4762344861374,1500,1706.7316923829362,-38.09150412797893,-22.675246783823063,32.992399376989745
21.52694606781006,53.0,0.09550616210526641,-129.0448147350503,-30.0,-18.46299355462585,-2.159284070783019,-80.0,43.961862743977825,156.4603175549694,1577.2352271408167,1567.281063422863,1500,1645.6978582429074,-40.095506162105266,-21.53700644537415,36.038137256022175
21.57276225090027,53.0,2.5173310208389665,-128.9294790357439,-18.0,-19.268743799710435,-3.041883851356046,-10.0,43.48489473972867,158.4521732793234,1573.9565819035092,1545.8990706733975,1500,1789.901785356346,-42.51733102083897,-20.731256200289565,36.51510526027133
21.610336780548096,44.0,4.173803486145879,-128.772645357348,-27.0,-20.27065591299335,-3.8035538787416776,-83.0,40.35048995662743,159.96827585897066,1570.20795985029,1565.5181300753666,1500,1628.320390667055,-44.17380348614588,-19.72934408700665,39.64951004337257
21.658487558364868,21.0,5.166577818150138,-128.52388663025906,-23.0,-21.37781570613559,-4.832927623621056,-106.0,35.24196280678517,161.66521218224582,1537.153993276955,1564.103661933909,1500,1557.877311885266,-45.16657781815014,-18.62218429386441,44.75803719321483
21.695810317993164,34.0,6.439569809632445,-128.28350266069125,-23.0,-22.226251301914388,-5.661667187409874,-84.0,32.106685612679044,162.86173871635444,1558.632486938474,1563.0064405923308,1500,1602.9748639111756,-46.439569809632445,-17.773748698085612,47.893314387320956
21.734128713607788,26.0,7.44578107310889,-127.99819227587199,-21.0,-23.035003225316274,-6.544386473709069,-94.0,28.52138211034155,163.95463231953437,1548.69384017252,1562.7364766933101,1500,1571.2372643376189,-47.44578107310889,-16.964996774683726,51.47861788965845
21.779242515563965,18.0,8.238203344384722,-127.62653953000017,-16.0,-23.748579435304617,-7.615707237863157,-80.0,24.915320948570155,165.07862747310566,1535.5534789039557,1554.7768036257362,1500,1587.2877573601406,-48.23820334438472,-16.251420564695383,55.084679051429845
21.826776027679443,14.0,8.90875728598445,-127.20308137965273,-13.0,-24.36915207098145,-8.77421549465558,-71.0,21.51754030575711,166.10160616209177,1530.828825719501,1551.002531050601,1500,1595.7679243549837,-48.90875728598445,-15.630847929018548,58.48245969424289
21.864312410354614,4.0,9.066337414187018,-126.86275738426174,-17.0,-24.994871188751887,-9.712366992854765,-123.0,16.894931415858665,166.73572035200507,1516.9933967430363,1562.199555224038,1500,1480.0,-49.06633741418702,-15.005128811248115,63.105068584141335
21.907807111740112,9.0,9.444849740297315,-126.45200825721267,-9.0,-25.398887153764985,-10.817877284354497,-73.0,13.71231633382881,167.33282981096644,1523.4919370641085,1547.2406859027112,1500,1570.6030353287947,-49.444849740297315,-14.601112846235015,66.28768366617119
21.950343370437622,17.0,10.1540179418404,-126.02003137964961,-4.0,-25.553216256247175,-11.903901647356944,-41.0,11.96405993946098,167.84108580007288,1535.4617547796859,1537.047780986767,1500,1634.9900302194947,-50.1540179418404,-14.446783743752826,68.03594006053902
21.99344754219055,3.0,10.2933816544301,-125.57635350543231,-4.0,-25.72488141904814,-13.012788154105397,-69.0,8.977345558170342,168.22807895038724,1516.0246309157471,1539.5107911250761,1500,1564.656529738344,-50.2933816544301,-14.275118580951862,71.02265444182966
22.030400037765503,-1.0,10.272793516229648,-125.19677998840429,-3.0,-25.84253995979592,-13.967845401765091,-73.0,6.263512413466515,168.45951941842767,1510.1271986597314,1538.8301966909712,1500,1548.1054763307895,-50.27279351622965,-14.15746004020408,73.73648758653349
22.06751799583435,26.0,11.222512514570411,-124.78018845594,11.0,-25.418248095976615,-14.91120978548842,28.0,7.295237142670004,168.7302967675113,1546.3350815437286,1513.117915209579,1500,1771.3147646212954,-51.22251251457041,-14.581751904023385,72.70476285733
22.105754613876343,12.0,11.700391910801073,-124.33279388114184,11.0,-24.99560286503292,-15.866980942632486,1.0,7.338105832317183,169.01088111737334,1529.650427385818,1513.6476619442835,1500,1710.9104332098148,-51.70039191080107,-15.004397134967077,72.66189416768282
22.151427268981934,13.0,12.30350188204477,-123.7709306842947,14.0,-24.364413159083995,-16.980546778152096,23.0,8.410431740430084,169.39546705707252,1530.4718715996535,1508.6949353978187,1500,1762.1558473760085,-52.30350188204477,-15.635586840916007,71.58956825956992
22.18848180770874,35.0,13.605376870670433,-123.2667832325984,29.0,-23.301757271600817,-17.844004867662715,105.0,12.31502996642476,169.85169498339903,1556.4824342646116,1488.032724091829,1500,1956.6162000706718,-53.60537687067043,-16.698242728399183,67.68497003357524
22.226151704788208,-0.0,13.59416049010889,-122.75469260605423,17.0,-22.64281383192981,-18.69694113889856,0.0,12.323272292584548,170.3160024633521,1513.3674875001088,1501.6524804548005,1500,1721.566452804152,-53.59416049010889,-17.35718616807019,67.67672770741545
22.273510694503784,-8.0,13.19930328227776,-122.12959637853348,14.0,-21.9822939547577,-19.739457366693344,-17.0,11.536936689568776,170.86313104865704,1501.44277771806,1506.1383696119874,1500,1683.5521150368236,-53.19930328227776,-18.0177060452423,68.46306331043122
22.310294151306152,10.0,13.560279739498682,-121.63077655032657,29.0,-20.935547583061542,-20.50808168118463,59.0,13.717226034384055,171.3667398005698,1525.8214421961943,1485.08653041726,1500,1855.7328938035344,-53.56027973949868,-19.064452416938458,66.28277396561595
22.348371744155884,11.0,13.960599172376888,-121.09921716683225,32.0,-19.717437578902157,-21.258916550385123,71.0,16.428028936309573,171.99231484845606,1526.7110828482407,1479.5385587420042,1500,1889.857433069099,-53.96059917237689,-20.282562421097843,63.57197106369043
22.384780645370483,5.0,14.12844393434171,-120.58478909944257,33.0,-18.51037475960871,-21.93282806393219,65.0,18.80032131378283,172.676657007866,1519.258301651068,1476.666587485263,1500,1883.449283903558,-54.12844393434171,-21.48962524039129,61.19967868621717
22.428075551986694,3.0,14.249971653490107,-119.96785489471104,30.0,-17.22004707694741,-22.67847103353429,58.0,21.308374808467853,173.5994805225263,1517.109235145569,1479.6041416982264,1500,1875.026070445936,-54.24997165349011,-22.77995292305259,58.69162519153215
22.473378896713257,3.0,14.368723944584353,-119.31686938286126,30.0,-15.869484704915454,-23.397362583214058,61.0,24.0559133070851,174.68922503126944,1516.871278464119,1478.3202303282183,1500,1889.6808535464772,-54.36872394458435,-24.130515295084546,55.9440866929149
22.518341302871704,11.0,14.854058466006215,-118.64897038262677,36.0,-14.249920068640712,-24.03760442955977,96.0,28.354047414998256,175.96261075853695,1526.7945845565882,1469.924965041203,1500,1980.7715157039486,-54.854058466006215,-25.750079931359288,51.645952585001744
22.556457996368408,2.0,14.929105886451794,-118.0799649418876,38.0,-12.792632165387097,-24.525564968958868,81.0,31.435408080743926,177.16233851993076,1516.0741393481198,1465.3614616164311,1500,1957.686676639424,-54.929105886451794,-27.207367834612903,48.564591919256074
22.59335446357727,-4.0,14.793777517037995,-117.53414445039208,36.0,-11.47254288571369,-24.948935123562954,64.0,33.782843001151114,178.40902354929537,1508.9706304887436,1466.5684957860171,1500,1927.744040944966,-54.793777517037995,-28.52745711428631,46.217156998848886
22.63016986846924,-1.0,14.758896657180472,-116.9907509874524,39.0,-10.041922142333526,-25.318500873182106,80.0,36.71586141014387,179.7598574787164,1512.1465144205267,1462.0056879244341,1500,1973.0452593913685,-54.75889665718047,-29.958077857666474,43.28413858985613
22.67809295654297,1.0,14.792805687848073,-116.28186227265378,30.0,-8.597300265641074,-25.730608439302173,66.0,39.8627170914508,181.6711238699479,1514.4058686397905,1471.1548758568488,1500,1951.6674499264486,-54.79280568784807,-31.402699734358926,40.1372829085492
22.723206996917725,3.0,14.918175824454138,-115.60886798358364,33.0,-7.091018377540216,-26.050526453728867,82.0,43.57642237602563,183.63701156954994,1516.748887459266,1466.35173941465,1500,2000.9459240443944,-54.91817582445414,-32.908981622459784,36.42357762397437
22.770492792129517,-3.0,14.755810983126075,-114.91110661889469,27.0,-5.816704607784217,-26.32556840937825,54.0,46.1147658896007,185.81726610175352,1509.1741790560518,1472.263717845246,1500,1946.8696511622422,-54.755810983126075,-34.18329539221578,33.8852341103993
22.815354824066162,-6.0,14.474765466634956,-114.26173922825507,29.0,-4.49995769361697,-26.52744672801637,58.0,48.70718066405623,188.00267112636533,1505.257987937339,1468.1731255877776,1500,1965.6503834884586,-54.474765466634956,-35.50004230638303,31.29281933594377
22.85990023612976,-29.0,13.192347689024622,-113.67401775834539,7.0,-4.178649026296036,-26.713445897035438,-47.0,46.626738456901684,190.0771882676259,1472.5070399895842,1495.0247672698142,1500,1736.5074485713164,-53.19234768902462,-35.821350973703964,33.373261543098316
22.89683747291565,-8.0,12.885389264667111,-113.19812852632202,27.0,-3.1729829107683827,-26.830755297353093,49.0,48.42451131768946,191.86837278450201,1501.089270671522,1469.2610963983154,1500,1949.104907113249,-52.88538926466711,-36.82701708923162,31.575488682310542
22.94267725944519,-1.0,12.832676215115512,-112.60988444756684,25.0,-2.004966058129966,-26.922659645329794,64.0,51.35373458972133,194.2229312503357,1509.8875789821777,1470.8854269858632,1500,1992.526375604969,-52.83267621511551,-37.995033941870034,28.646265410278676
22.987821578979492,-10.0,12.394893367842684,-112.0503372414668,21.0,-1.0761683666474227,-26.97124330368203,36.0,52.9894015767177,196.61449531147056,1498.8406024280907,1475.3635466833523,1500,1939.062032687448,-52.394893367842684,-38.92383163335258,27.010598423282307
23.025009393692017,-11.0,11.996132494320896,-111.6042272890011,25.0,-0.1485278394398648,-26.976766764866568,39.0,54.451540816783336,198.63944210443555,1497.149366373937,1469.064299802542,1500,1952.9251226274293,-51.9961324943209,-39.851472160560135,25.54845918321666
23.069112300872803,6.0,12.243937353471217,-111.06423113719146,32.0,1.2514938165281606,-26.921571950859523,91.0,58.471042761091724,201.21825477900643,1516.9647003289322,1461.548761393578,1500,2050.0,-52.24393735347122,-41.25149381652816,21.528957238908273
23.10619282722473,-15.0,11.669543483030168,-110.63150162913813,16.0,1.8531348956691431,-26.852879708259998,3.0,58.565253181399854,203.3887262602175,1490.5003904890848,1477.2660001341362,1500,1889.0654843141222,-51.66954348303017,-41.85313489566914,21.434746818600143
23.143235683441162,-13.0,11.201505647269713,-110.21659257250938,19.0,2.55567022624367,-26.758156154118147,-0.0,58.553587349000836,205.5593517281251,1493.7217935950891,1472.9146334546997,1500,1885.7531462866023,-51.20150564726971,-42.55567022624367,21.44641265099916
23.18931269645691,-14.0,10.53962324783852,-109.73092806083368,6.0,2.8151017429735745,-26.628466151988345,-30.0,57.167252691017055,208.19314812027014,1490.4354979765442,1489.689285971442,1500,1819.2168923952358,-50.53962324783852,-42.815101742973575,22.83274730898295
23.22646450996399,-18.0,9.883865943490825,-109.36374808154487,9.0,3.138456665053333,-26.511881760595806,-48.0,55.38502410019091,210.2503796525256,1484.926496376878,1484.8313858836611,1500,1778.8937701834989,-49.883865943490825,-43.13845666505333,24.61497589980909
23.270565271377563,-8.0,9.54313927372435,-108.9428747217276,12.0,3.6872023530636895,-26.349251351901128,-13.0,54.791370742641845,212.66685145397713,1498.3712687756524,1479.8828261932883,1500,1854.0802318407589,-49.54313927372435,-43.68720235306369,25.208629257358158
23.3155677318573,-12.0,8.996298987563435,-108.53801698719107,6.0,3.951331629321494,-26.171445837473343,-40.0,52.98081949126774,215.05129553188078,1491.631922688187,1487.9372804906245,1500,1793.7004371586506,-48.996298987563435,-43.951331629321494,27.019180508732266
23.35289454460144,-12.0,8.54947159082893,-108.21889450041172,9.0,4.27176138725617,-26.011972193803416,-40.0,51.4841762089973,216.9732444078507,1491.3775538002742,1483.8363366205872,1500,1792.397607574447,-48.54947159082893,-44.27176138725617,28.515823791002703
23.390119314193726,-8.0,8.234568517850306,-107.91236458464286,10.0,4.632640370916384,-25.839578448768872,-27.0,50.46433771078296,218.85117820161295,1495.9187670069261,1482.1618816378361,1500,1818.9960761290015,-48.234568517850306,-44.632640370916384,29.535662289217047
23.438318967819214,-20.0,7.248876078142985,-107.56297299676902,-9.0,4.202403307855256,-25.636993005073855,-88.0,46.19986710991436,221.0783813155879,1476.8095860712244,1508.5129677121954,1500,1679.2978031673324,-47.248876078142985,-44.202403307855256,33.80013289008564
23.47461199760437,-20.0,6.5280250985089125,-107.3260511874306,-7.0,3.9562798404996045,-25.49341705549037,-92.0,42.872031345633864,222.63423501127718,1476.6177285241995,1505.7092514621402,1500,1664.9669623056761,-46.52802509850891,-43.956279840499604,37.127968654366136
23.51186752319336,-20.0,5.7866882345343456,-107.11046507583339,-10.0,3.593696203664038,-25.35952258977234,-92.0,39.42509865072086,224.1036487618476,1475.537284668558,1510.5663302117823,1500,1655.9138996839117,-45.786688234534346,-43.59369620366404,40.57490134927914
23.549335479736328,-8.0,5.49281071970951,-106.90463056196164,1.0,3.614580425137021,-25.224216606035945,-42.0,37.85660246604818,225.51935058269908,1493.5411458740748,1495.5117863808161,1500,1760.2737926733093,-45.49281071970951,-43.61458042513702,42.14339753395182
23.58660888671875,6.0,5.71459981720642,-106.69166065643567,11.0,4.015169292901547,-25.074434076344765,12.0,38.3143974689956,226.94951405729304,1512.2705119353118,1482.0314568379617,1500,1880.8177809774556,-45.71459981720642,-44.01516929290155,41.6856025310044
23.661173343658447,1048.0,83.84246381909017,-100.43995289407681,-23.0,2.288757824434377,-24.903763178451566,-127.0,28.86617580327978,229.10209060027114,1600.0,1510.5458650393787,1500,2050.0,-43.84246381909018,-42.28875782443438,51.13382419672022
23.69796085357666,-12.0,83.38985189282589,-97.37220812711118,-14.0,1.7813219543279928,-24.83824254749493,-76.0,26.069898014928263,230.06095076562085,1580.2688059395412,1518.5617503279498,1500,1677.3036219617718,-43.38985189282589,-41.78132195432799,53.93010198507174
23.73547673225403,-13.0,82.90860899845912,-94.26199671319041,-16.0,1.1627128227232575,-24.794615146780206,-82.0,23.01022345407332,230.92427632196993,1579.898471654991,1523.5228529537126,1500,1658.2941328712352,-42.908608998459115,-41.16271282272326,56.98977654592668
23.772844076156616,-10.0,82.52818910859912,-91.17803910784366,-15.0,0.6098368491892003,-24.77183050763009,-70.0,20.39741335316836,231.68640539774867,1582.4617634702092,1521.4248548290316,1500,1678.0925290129512,-42.52818910859913,-40.6098368491892,59.60258664683164
23.817907571792603,-11.0,82.03167339365868,-87.48138559398086,-16.0,-0.08934223926176799,-24.775857028557017,-70.0,17.245635929538345,232.4636979459997,1581.0866291010664,1523.425792934331,1500,1670.0062104712852,-42.03167339365867,-39.91065776073823,62.754364070461655
23.85541844367981,-7.0,81.78193243686043,-84.41326453867889,-14.0,-0.6237053084883755,-24.79923312969188,-61.0,14.975665925918733,233.02461274035653,1586.4580300330156,1521.991667768861,1500,1686.8572040964789,-41.78193243686043,-39.376294691511625,65.02433407408127
23.892423152923584,-13.0,81.28485056930417,-81.40574925362822,-21.0,-1.4153301857408138,-24.851650204148672,-87.0,11.73813424220387,233.45960586905403,1579.1918765446076,1534.7403005759315,1500,1619.0538670123692,-41.28485056930417,-38.584669814259186,68.26186575779613
23.94028878211975,-6.0,80.99341048640073,-77.52894869995322,-13.0,-2.0500835741903884,-24.949771412661832,-54.0,9.169126478213286,233.89845689967123,1586.4580490598294,1522.233527232896,1500,1687.0691693518784,-40.99341048640073,-37.94991642580961,70.83087352178671
23.98877239227295,-13.0,80.36694786312889,-73.63260305736948,-19.0,-2.9710517772358997,-25.09383289585317,-79.0,5.346805593671263,234.15770081063985,1578.8850615169938,1533.0150045128223,1500,1620.5159992792169,-40.366947863128885,-37.0289482227641,74.65319440632874
24.025893926620483,-7.0,80.12192971383266,-70.6582394761669,-16.0,-3.568379680128821,-25.22628471396193,-62.0,3.0491282386719547,234.2708745899053,1586.5384132214049,1528.7509669352403,1500,1653.7217852808699,-40.12192971383266,-36.43162031987118,76.95087176132805
24.074305295944214,-6.0,79.84668419930924,-66.79261889958792,-12.0,-4.1578362743996635,-25.427453296084913,-52.0,0.551195699335068,234.29753402239993,1586.8200351030805,1523.4275960848402,1500,1668.6764229523458,-39.846684199309244,-35.84216372560034,79.44880430066493
24.115063667297363,-33.0,78.5048590783418,-63.59296356831402,-39.0,-5.763404198277378,-25.662540272102408,-164.0,-6.1504495356670645,234.04654230975274,1553.524837844616,1577.9108694283595,1500,1480.0,-38.504859078341795,-34.23659580172262,86.15044953566706
24.158819675445557,0.0,78.51735404000928,-60.1573388651688,-8.0,-6.1181440617157605,-25.93023999880181,-32.0,-7.562085342706709,233.71564302128843,1592.9994314152511,1519.5165117088495,1500,1690.4977749484046,-38.51735404000928,-33.88185593828424,87.56208534270671
24.199560403823853,-11.0,78.06670771811326,-56.97649069212028,-17.0,-6.801797001243557,-26.20714096686763,-72.0,-10.487352331575721,233.28895073509847,1580.5904856362517,1535.04117687587,1500,1592.395422968454,-38.06670771811327,-33.19820299875644,90.48735233157572
24.24509286880493,4.0,78.24263637466481,-53.4143582993201,-2.0,-6.910946635529349,-26.522050671059077,-6.0,-10.770179948474365,232.79797500065763,1595.3339076362563,1511.8074534695581,1500,1738.0266919894711,-38.24263637466482,-33.08905336447065,90.77017994847436
24.290203094482422,1.0,78.28771828544232,-49.882762994441464,-3.0,-7.0343500580525244,-26.839331538798394,-5.0,-10.976115543628723,232.30285826979144,1591.3054213431958,1512.4344863520157,1500,1738.514465880582,-38.287718285442324,-32.965649941947476,90.97611554362872
24.327001333236694,-19.0,77.5855928175175,-47.027786821744286,-19.0,-7.739925096646431,-27.12417852125802,-73.0,-13.665790002576259,231.79996497561973,1568.3693780382007,1540.3454432364626,1500,1576.0236550461896,-37.58559281751749,-32.26007490335357,93.66579000257626
24.36444902420044,-7.0,77.30781693645733,-44.132584836207506,-6.0,-7.94693237276725,-27.421662896476366,-15.0,-14.230905336901671,231.26738293582764,1579.9584847439396,1517.8445934832098,1500,1700.8575208872485,-37.307816936457336,-32.05306762723275,94.23090533690167
24.401289224624634,-5.0,77.14157220602596,-41.290784207004265,2.0,-7.874276538110578,-27.711826039915014,12.0,-13.79348743338997,230.75899460195205,1581.1893156880715,1506.6636663300555,1500,1759.8654088808928,-37.141572206025955,-32.12572346188942,93.79348743338997
24.44640564918518,-10.0,76.67437900768272,-37.83162005435635,-2.0,-7.971625968679163,-28.07149060564198,-4.0,-13.980285692519729,230.1282140992524,1574.10066357302,1512.843697503782,1500,1721.2972804686453,-36.67437900768271,-32.02837403132084,93.98028569251973
24.491477727890015,-13.0,76.08564881580972,-34.40219100146041,-3.0,-8.086441164316568,-28.435976813946752,-4.0,-14.168911517621552,229.48929790670596,1569.68347170019,1513.5645291393043,1500,1718.359533923332,-36.08564881580972,-31.913558835683432,94.16891151762155
24.538969039916992,-8.0,75.72695682766985,-30.805818465904082,9.0,-7.682630985257234,-28.800805732344315,42.0,-12.15179827730266,228.91245670954726,1572.7245552616446,1497.4144344512736,1500,1825.0534354638935,-35.726956827669845,-32.317369014742766,92.15179827730266
24.57556986808777,-15.0,75.17224220929614,-28.054505912967176,9.0,-7.337537610054007,-29.069374432632966,48.0,-10.377437460849876,228.53262400749415,1561.3767509581332,1495.8211223287758,1500,1838.178626807693,-35.17224220929615,-32.66246238994599,90.37743746084988
24.623188495635986,-15.0,74.44444826978028,-24.509581206715524,7.0,-7.0149641655937245,-29.403445830960877,34.0,-8.763141188327822,228.1152871972943,1561.3868792376281,1499.0178335789612,1500,1810.5283404462587,-34.44444826978028,-32.985035834406276,88.76314118832782
24.659698247909546,-22.0,73.64937444118249,-21.820555434490085,11.0,-6.616220083983613,-29.644985035486762,51.0,-6.91923038938279,227.8626859562581,1550.6227842432395,1493.0771125032559,1500,1847.9020802125171,-33.64937444118249,-33.38377991601639,86.91923038938279
24.696956872940063,-18.0,72.99525881656932,-19.1009220709415,11.0,-6.1891115520120294,-29.875576919678494,52.0,-4.987905143735389,227.67688628035313,1555.3223987115823,1491.9363662060186,1500,1857.2836691941611,-32.99525881656932,-33.81088844798797,84.98790514373539
24.73465585708618,-26.0,71.9981194414143,-16.38652878205462,15.0,-5.634714992154208,-30.087995920573384,63.0,-2.5955916947108477,227.57901902043506,1541.8196387474716,1487.2311094137456,1500,1885.2280858032375,-31.99811944141431,-34.36528500784579,82.59559169471085
24.7721164226532,-26.0,71.03835136291889,-13.725595205404757,21.0,-4.850985412659483,-30.269754744335582,88.0,0.7159793967768024,227.60584411043962,1540.572105499612,1478.9852053481877,1500,1948.5242195068224,-31.03835136291888,-35.14901458734052,79.2840206032232
24.819661855697632,-18.0,70.16466065344066,-10.389552573103797,22.0,-3.7982512064090344,-30.450322508988105,92.0,5.103197038336646,227.84846200647758,1548.3533442019839,1476.6260324115608,1500,1971.465201884544,-30.164660653440663,-36.201748793590966,74.89680296166335
24.856934785842896,-35.0,68.87217437864726,-7.82205789798123,18.0,-3.1380993370263113,-30.56718616554364,69.0,7.663871510650182,228.13370035020316,1527.31392568401,1481.0110739481531,1500,1922.8008082775925,-28.87217437864725,-36.86190066297369,72.33612848934982
24.89390516281128,-44.0,67.24129674652833,-5.336442440907664,20.0,-2.3956738904624117,-30.65583166957145,75.0,10.426400936206505,228.5196630069298,1513.3963924805898,1477.4657145944777,1500,1942.003154252843,-27.241296746528338,-37.60432610953759,69.5735990637935
24.931085348129272,-39.0,65.78500117633703,-2.890261587429935,17.0,-1.7813772526665943,-30.72200881791394,64.0,12.807985956476145,228.99529526358282,1518.3634750530007,1481.159708742008,1500,1926.3906229041036,-25.785001176337037,-38.218622747333406,67.19201404352386
24.96860957145691,-40.0,64.29052658190045,-0.4781467273512794,19.0,-1.058720706631597,-30.76177788681577,72.0,15.510610589277519,229.57959316019156,1515.7890768637933,1477.239111958507,1500,1950.9432465614566,-24.290526581900455,-38.9412792933684,64.48938941072248
25.016184329986572,-33.0,62.710709285507136,2.505300124130623,16.0,-0.285155606145608,-30.775341444452145,62.0,18.43211082422671,230.4547429533348,1522.7287842772755,1480.0737520819705,1500,1938.2559617134648,-22.71070928550714,-39.71484439385439,61.56788917577329
25.053129196166992,-49.0,60.89050805017473,4.754906313130521,12.0,0.16511870568494658,-30.769240841027795,38.0,19.819788547595017,231.1869965651674,1500.4560754667984,1484.3967107551314,1500,1889.2743492446925,-20.890508050174727,-40.16511870568495,60.18021145240498
25.098373889923096,-39.0,59.10934131312351,7.429614492566644,17.0,0.9235220551614134,-30.72748851544817,65.0,22.738805540902995,232.21454910418498,1511.129804970026,1478.3848619045123,1500,1957.4722817469228,-19.10934131312351,-40.92352205516141,57.261194459097005
25.135904788970947,-45.0,57.41201887859427,9.583996974933404,33.0,2.1643444495833037,-30.646176159217543,128.0,27.558975322342057,233.2504720149458,1501.8832059844635,1459.7976032678469,1500,2050.0,-17.412018878594264,-42.164344449583304,52.44102467765794
25.181217670440674,-42.0,55.48910847553839,12.098368370146275,20.0,3.0496257118923467,-30.508005553818403,77.0,31.036043549910232,234.65664918665468,1503.5231395606015,1473.4209469762318,1500,2009.1166879869702,-15.48910847553839,-43.04962571189235,48.96395645008977
25.218241930007935,-56.0,53.41726781724367,14.076039480840326,9.0,3.3929136793403813,-30.382375729861295,31.0,32.18193737850799,235.84822297170814,1484.138837474899,1484.9661272436551,1500,1914.255066085666,-13.417267817243667,-43.39291367934038,47.81806262149201
25.2554771900177,-56.0,51.33938828384335,15.987748393915588,13.0,3.89046466857053,-30.2375503687306,50.0,34.04256518385747,237.11484900488608,1482.6256182284794,1479.6812311818283,1500,1962.3924084841321,-11.33938828384335,-43.89046466857053,45.95743481614253
25.30058479309082,-48.0,49.15799225702296,18.205171036874223,3.0,4.019314445428691,-30.056198897579712,10.0,34.48755530957608,238.67162643968163,1489.3221087755257,1492.4173658466214,1500,1877.3401413568688,-9.157992257022963,-44.01931444542869,45.51244469042392
25.339780569076538,8.0,49.45764101438588,20.14392569564557,3.0,4.130118687468567,-29.894472257538876,-1.0,34.46501296747402,240.0204550924445,1563.6379248071682,1492.2903433308636,1500,1867.5149874009642,-9.45764101438588,-44.13011868746857,45.53498703252598
25.384671688079834,-64.0,46.60208066562156,22.235734139371928,15.0,4.794745276211344,-29.679069591707798,65.0,37.407410803259864,241.70158853298244,1468.8277681694335,1477.523997470608,1500,2012.159919743878,-6.602080665621553,-44.794745276211344,42.592589196740136
25.431880474090576,-57.0,43.89699623688705,24.308089438811894,1.0,4.851390002979542,-29.450099192278042,8.0,37.79115698095761,243.4846990938022,1472.234350143378,1493.7332448884265,1500,1889.6867778711462,-3.896996236887051,-44.85139000297954,42.20884301904239
25.46802520751953,-70.0,41.35944967134825,25.802996000228614,-6.0,4.64238685754114,-29.282249335768057,-20.0,37.05987215715466,244.82524324223283,1451.2171999217344,1503.1491642749693,1500,1832.5694794681413,-1.359449671348254,-44.64238685754114,42.94012784284534
25.513479709625244,-53.0,38.9458953664668,27.573206570622343,-8.0,4.264865312919973,-29.088375737251308,-29.0,35.744979523874434,246.45089128279395,1471.2594490521697,1507.047977872241,1500,1807.8571187578873,1.0541046335332034,-44.26486531291997,44.255020476125566
25.551828384399414,-61.0,36.592388597941294,28.97658959614368,-3.0,4.154529232282492,-28.92906198050142,-5.0,35.55441505791905,247.8135422066565,1458.6389293717693,1499.777927982752,1500,1862.7531593565732,3.407611402058709,-44.15452923228249,44.44558494208095
25.588755130767822,-65.0,34.20071159510424,30.239429057984545,13.0,4.651918177217247,-28.75729952350428,71.0,38.169205832210245,249.22277018306278,1455.6779879852124,1479.5260382841027,1500,2036.8570985060276,5.7992884048957585,-44.65191817721725,41.830794167789755
25.625893115997314,-55.0,32.152367664426464,31.433480216233775,-20.0,3.9053328920165384,-28.61223632623067,-72.0,35.496433326419364,250.54142549806204,1458.9974020577754,1524.6815494181917,1500,1722.7524584447956,7.8476323355735325,-43.90533289201654,44.503566673580636
25.663134336471558,-62.0,29.851769984454116,32.545232149854144,-17.0,3.2609713161372866,-28.490815543818353,-58.0,33.329824844897374,251.78246224579226,1447.6746370718422,1521.0937985499384,1500,1750.3234688912532,10.148230015545884,-43.26097131613729,46.670175155102626
25.70801329612732,-47.0,27.72974985952625,33.78967480733883,-17.0,2.493445039995251,-28.378901623759326,-55.0,30.851555798139977,253.16707004052677,1465.6646771812348,1521.7189037163123,1500,1747.449160680196,12.27025014047375,-42.49344503999525,49.14844420186002
25.75564432144165,-44.0,25.649533241435535,35.01138225913715,-13.0,1.868305451795841,-28.2899132103674,-39.0,28.972129524621366,254.5471458877334,1468.9260649440782,1516.5491103642048,1500,1776.7506065291898,14.350466758564465,-41.86830545179584,51.027870475378634
25.803808450698853,-2.0,25.56160061546592,36.24255277828292,5.0,2.130663227000909,-28.187294211247053,11.0,29.498213643006984,255.96785243203647,1525.3458531810418,1491.050042074462,1500,1886.7702817198904,14.438399384534081,-42.13066322700091,50.501786356993016
25.840413093566895,-64.0,23.236003769302275,37.09317595646875,-27.0,1.1465349357118484,-28.145355778464918,-81.0,26.54259150719065,256.9381751938059,1435.4981473383,1538.2551413556744,1500,1694.9530034095797,16.763996230697725,-41.14653493571185,53.45740849280935
25.87803840637207,-57.0,21.07840273647935,37.88620719803396,-24.0,0.23861924521985145,-28.136372022487308,-69.0,23.928738692297436,257.8395397923068,1442.5522925438365,1534.9415552193536,1500,1710.797946034978,18.92159726352065,-40.23861924521985,56.071261307702564
25.91534948348999,-51.0,19.166163925480777,38.60142251841238,-26.0,-0.7185765374052266,-28.16316164316193,-77.0,21.069990559809007,258.6246389516978,1448.4170832915004,1538.8552937387747,1500,1687.1202878364638,20.833836074519223,-39.28142346259477,58.93000944019099
25.9628324508667,-32.0,17.66782177498642,39.44032206168675,-20.0,-1.6603314092214774,-28.242017710431725,-64.0,18.033908047147925,259.481153100493,1475.740440238235,1531.1735283964758,1500,1700.7213106816532,22.33217822501358,-38.33966859077852,61.966091952852075
26.00096583366394,-42.0,16.06393782837511,40.05280626347893,-27.0,-2.6894734047310536,-28.344642475001386,-84.0,14.826282420736263,260.04716567851676,1457.3684726966515,1543.9458581968881,1500,1654.8674856631399,23.93606217162489,-37.310526595268946,65.17371757926374
26.046021223068237,-29.0,14.74167305948496,40.71699808364485,-25.0,-3.8208833960627473,-28.516782021674732,-85.0,11.006784155904228,260.54311211541216,1474.5737857460272,1542.9299702185826,1500,1640.276984146891,25.25832694051504,-36.17911660393725,68.99321584409577
26.09330725669861,-30.0,13.307770450416328,41.346282455987385,-18.0,-4.649660791629628,-28.73662940975476,-49.0,8.697746409414336,260.9542965805322,1472.5589661236468,1531.203491155106,1500,1710.0146960334948,26.692229549583672,-35.35033920837037,71.30225359058566
26.138493299484253,-28.0,12.03935829838153,41.890313508016646,-17.0,-5.428323466836844,-28.981902218263055,-53.0,6.322120727801192,261.2399742274788,1474.1142656782981,1531.9630059240094,1500,1695.7669518198568,27.96064170161847,-34.571676533163156,73.67787927219881
26.184695720672607,-17.0,11.247018443191127,42.409939583751374,-25.0,-6.565298553558385,-29.285261517177446,-92.0,2.076250454538453,261.33594113178987,1488.4176908574034,1546.6587865282127,1500,1601.2095421807205,28.752981556808873,-33.434701446441615,77.92374954546155
26.23240900039673,-19.0,10.348312897526498,42.9037310073847,-18.0,-7.420769900967677,-29.639104323305453,-63.0,-0.9098272254236548,261.29258972688433,1485.2049179026237,1536.2566749285563,1500,1654.0866829012805,29.651687102473502,-32.57923009903232,80.90982722542365
26.269161701202393,-16.0,9.77647334738639,43.26299152761229,-27.0,-8.409833430681388,-29.949217011264253,-106.0,-4.814626387067079,261.11493209961804,1488.6909445259435,1554.0114509989344,1500,1553.9094316076053,30.22352665261361,-31.590166569318612,84.81462638706708
26.306382417678833,-13.0,9.288623466102788,43.60872960642215,-24.0,-9.307705551863481,-30.294795458242593,-97.0,-8.432003055447453,260.801947332731,1492.0146530106163,1550.7520497327,1500,1560.859288310946,30.711376533897212,-30.69229444813652,88.43200305544745
26.34305191040039,-14.0,8.788625427231157,43.931045949990235,-21.0,-10.074520207274198,-30.663893936123785,-92.0,-11.790116902655797,260.3701522464862,1490.558239234866,1546.536656651173,1500,1562.797589159331,31.211374572768843,-29.925479792725802,91.7901169026558
26.381011962890625,-1.0,8.73816446168571,44.26274088160186,-25.0,-11.036396103958793,-31.082907156143772,-118.0,-16.28167382079269,259.7520136528422,1510.4304293470138,1557.2417257062377,1500,1495.1085886319472,31.26183553831429,-28.963603896041207,96.28167382079269
26.418360948562622,-10.0,8.364885225354868,44.57512097315054,-12.0,-11.486014230398567,-31.512287001108596,-62.0,-18.60044634613638,259.0562991736862,1495.8944803066233,1533.411069756228,1500,1604.221247248216,31.63511477464513,-28.513985769601433,98.60044634613638
26.466330528259277,-4.0,8.18995555833871,44.96803070440724,-9.0,-11.897402784756995,-32.0825550719621,-49.0,-20.945973297381343,258.05271319475185,1505.3810043462042,1528.2873976965072,1500,1624.103685642453,31.81004444166129,-28.102597215243005,100.94597329738134
26.509851932525635,-7.0,7.879559521300443,45.3109207484735,-1.0,-11.956535092239083,-32.6033963295743,-24.0,-22.011039279138842,257.09336593033305,1499.7163181054448,1516.906083294859,1500,1671.5619730623403,32.12044047869956,-28.043464907760917,102.01103927913884
26.54728865623474,-3.0,7.764442816106005,45.60160160249749,-0.0,-11.96014235218125,-33.05106218025028,-30.0,-23.13142601181302,256.22778165809,1505.6197546354852,1515.2030863727225,1500,1655.6857850525,32.235557183893995,-28.03985764781875,103.13142601181302
26.594761610031128,3.0,7.895293523830226,45.97641638954786,-2.0,-12.05722071480971,-33.62343106483383,-33.0,-24.70265590509007,255.05519140710206,1514.57090114087,1518.3603159705126,1500,1644.0724376696605,32.104706476169774,-27.94277928519029,104.70265590509007
26.64122724533081,-3.0,7.737697532476929,46.33594788671863,6.0,-11.766352135969214,-34.16992364005003,4.0,-24.494143845371113,253.9179489506278,1504.9266490081634,1505.307951572525,1500,1722.9687733039138,32.26230246752307,-28.233647864030786,104.49414384537111
