time,e_d_x,e_p_x,e_i_x,e_d_y,e_p_y,e_i_y,e_d_z,e_p_z,e_i_z,roll,pitch,yaw,thrust,x,y,z
10.259124279022217
0,-40.0,0.0
0,-40.0,0.0
0,80.0,0.0
1453.358492406526,1546.4877304465494,1500,1727.3841495162562,0.0,0.0,0.0
10.265925407409668
1880.0,-27.222942065042105,-0.18499744359967593
3565.0,-15.69789105536642,-0.10700290328810833
-724.0,75.05592462461924,0.5126660310198585
1600.0,1400.0,1500,2050.0,-12.777057934957893,-24.30210894463358,4.9440753753807565
10.272992610931396
379.0,-24.543586560959405,-0.3586099594490527
728.0,-10.601726531961528,-0.18124246960715484
-149.0,74.01914952059606,1.028980122111987
1600.0,1400.0,1500,2050.0,-15.456413439040594,-29.39827346803847,5.980850479403936
10.279771566390991
180.0,-23.322123130112523,-0.5166317473868531
341.0,-8.278489248430756,-0.23761067144610928
-69.0,73.54650493362463,1.530810085961866
1600.0,1400.0,1500,2050.0,-16.677876869887477,-31.721510751569244,6.453495066375364
10.287047863006592
99.0,-22.60434994715087,-0.6810484201382032
187.0,-6.913276522726072,-0.2879862451680133
-38.0,73.26876300453155,2.0647214267875436
1600.0,1400.0,1500,1829.7996866101614,-17.39565005284913,-33.08672347727393,6.731236995468454
10.293859958648682
69.0,-22.131286507936924,-0.8318563491017084
132.0,-6.013504501966409,-0.32891210223717926
-27.0,73.0857113730279,2.562204932918703
1576.6453190743025,1400.0,1500,1745.218623665777,-17.868713492063076,-33.98649549803359,6.914288626972096
10.301065683364868
46.0,-21.8019228861318,-0.9888926279009865
87.0,-5.387051161905411,-0.3677862223575594
-18.0,72.9582643049781,3.0886352801052346
1541.3791886997974,1400.0,1500,1704.0193622100396,-18.1980771138682,-34.61294883809459,7.041735695021904
10.30746603012085
37.0,-21.566680181715565,-1.1270914001511547
70.0,-4.939616873021727,-0.39915770002430767
-14.0,72.8672372729287,3.5502680632359427
1528.2233879169353,1403.043992239363,1500,1696.0078834313233,-18.433319818284435,-35.06038312697827,7.132762727071292
10.31471037864685
4.0,-21.534421143243616,-1.2830377759514977
3.0,-4.921387292075735,-0.4349026394626019
-290.0,70.75610347866126,4.064536894142569
1469.919926143554,1503.4479722987242,1500,1480.0,-18.465578856756384,-35.078612707924265,9.243896521338735
10.321714401245117
23.0,-21.37437651203383,-1.4327341999686871
45.0,-4.605329042420152,-0.46721446594450217
72.0,71.26115704931048,4.5644331877497715
1507.2323258616927,1445.2458778747364,1500,1860.8563405005298,-18.62562348796617,-35.39467095757985,8.738842950689511
10.328736782073975
-3.0,-21.395860197383765,-1.5830197866298168
-11.0,-4.680765898752227,-0.5000310195416444
-239.0,69.58701331798385,5.0523696991905025
1457.297675884515,1530.31668178938,1500,1480.0,-18.604139802616235,-35.31923410124777,10.412986682016152
10.335996150970459
17.0,-21.275075172660284,-1.7373619581447348
34.0,-4.43317503556662,-0.5323166537342108
113.0,70.4091952049266,5.56648408201685
1499.1259113901237,1461.440527117778,1500,1942.7175075396035,-18.724924827339716,-35.56682496443338,9.5908047950734
10.342549800872803
16.0,-21.167536384720172,-1.876227889455856
31.0,-4.2301646137241775,-0.5598520813722402
100.0,71.05716005753754,6.027627551056331
1498.893910087497,1464.325681523509,1500,1916.867905032017,-18.832463615279828,-35.76983538627582,8.942839942462454
10.349650859832764
8.0,-21.11020813904027,-2.026102523713254
17.0,-4.107605019646961,-0.5890488273522013
61.0,71.48727106468195,6.535791238474671
1487.7102299512985,1481.3108201075152,1500,1831.6905494020723,-18.88979186095973,-35.89239498035304,8.51272893531805
10.357080936431885
5.0,-21.0693846036845,-2.1825793385566157
12.0,-4.020055823521012,-0.6190226217574167
42.0,71.8026896670441,7.07182434882015
1483.953069613884,1488.3744608224663,1500,1793.5582307393477,-18.9306153963155,-35.97994417647899,8.197310332955892
10.36381196975708
4.0,-21.04062999477056,-2.324194487280307
9.0,-3.9581148737446696,-0.6456195278475856
34.0,72.03400080101709,7.5548327903942
1482.1468207292623,1491.7013969191512,1500,1778.019826293623,-18.95937000522944,-36.04188512625533,7.965999198982909
10.370960235595703
3.0,-21.020688743734215,-2.474445935085986
6.0,-3.9148814776254426,-0.6736657444879839
24.0,72.20365651164572,8.07309834361581
1479.8610233377087,1496.0142286086516,1500,1755.7747806613386,-18.979311256265785,-36.08511852237456,7.796343488354282
10.378079891204834
2.0,-21.00717365791803,-2.624019793852557
4.0,-3.8852952681252475,-0.7012989926129277
17.0,72.32813122326468,8.588308394331609
1478.4722966664172,1498.6020880540145,1500,1743.5389467493212,-18.99282634208197,-36.11470473187475,7.671868776735317
10.385056018829346
1.0,-20.998335932710656,-2.770576954729349
3.0,-3.865648746410635,-0.7282045015731665
13.0,72.41950657867937,9.090822594414837
1477.4785884758533,1500.4716940747578,1500,1735.1857470984646,-19.001664067289344,-36.134351253589365,7.580493421320632
10.39167594909668
1.0,-20.992895537256228,-2.909568479680713
2.0,-3.853227846279765,-0.753697902321959
10.0,72.48663822946902,9.570316159420287
1476.7745043928585,1501.805945119344,1500,1729.489898211444,-19.007104462743772,-36.146772153720235,7.513361770530977
10.398728370666504
0.0,-20.989916284763453,-3.057573196106103
1.0,-3.8460472133851553,-0.7808374371230989
7.0,72.5360145017379,10.082009064149515
1476.1235056284177,1503.0333540399306,1500,1723.506644210705,-19.010083715236547,-36.153952786614845,7.463985498262106
10.406112670898438
3.0,-20.96847690727217,-3.2123307366042444
4.0,-3.8187819585606917,-0.8091320688250907
11.0,72.61737261720458,10.62118081184472
1479.801453598789,1499.200561177071,1500,1732.3870456720672,-19.03152309272783,-36.18121804143931,7.382627382795421
10.413104772567749
2.0,-20.95376816664697,-3.3589065589598537
3.0,-3.8006788073254114,-0.8356397461776837
9.0,72.67708520842896,11.12695517635164
1478.6218077184594,1500.7237489078286,1500,1728.119770023773,-19.04623183335303,-36.19932119267459,7.322914791571038
10.419808149337769
-2.0,-20.964188753375115,-3.4994574078599117
-2.0,-3.813098845056558,-0.8611694745347312
-0.0,72.67599101278945,11.613887143953752
1473.115333480705,1507.1562253647496,1500,1710.6654800730394,-19.035811246624885,-36.18690115494344,7.3240089872105445
10.426735162734985
-1.0,-20.972725868600076,-3.644725760352857
-2.0,-3.8239242667371016,-0.8876906701656112
-0.0,72.67541079777298,12.117518614216296
1473.5770579047992,1506.743080444397,1500,1711.3106993846404,-19.027274131399924,-36.1760757332629,7.324589202227017
10.434311866760254
-1.0,-20.97986421437796,-3.803628960111949
-1.0,-3.833543894121668,-0.9168103306543876
-0.0,72.67520186108207,12.670669540857089
1473.99429549196,1506.3284752406726,1500,1711.9692079402155,-19.02013578562204,-36.16645610587833,7.324798138917924
10.441129446029663
-1.0,-20.98595936264236,-3.9467124084965874
-1.0,-3.8422438787317788,-0.943000552558413
0.0,72.6752599555661,13.166242849322366
1474.0639284321956,1506.351115244181,1500,1712.5838198453464,-19.01404063735764,-36.15775612126822,7.324740044433894
10.448350429534912
-1.0,-20.991272300080574,-4.098280030111029
-1.0,-3.850235091119721,-0.9707874311938657
0.0,72.67550896503857,13.690615648196497
1474.2919976081614,1506.1156061893244,1500,1713.179457204838,-19.008727699919426,-36.14976490888028,7.324491034961431
10.455281019210815
-1.0,-20.99599472888191,-4.243799660249569
-1.0,-3.8576731926030092,-0.9975197022316842
0.0,72.67589334841213,14.194215807907916
1474.3712437656866,1506.0739022951207,1500,1713.7682046552713,-19.00400527111809,-36.14232680739699,7.324106651587876
10.462494611740112
-1.0,-21.000267594751193,-4.395231958290734
-1.0,-3.8646733432432825,-1.0254476371247447
0.0,72.67637261083891,14.720067666999135
1474.5002489195754,1505.9300320971417,1500,1714.3499765644392,-18.999732405248807,-36.13532665675672,7.3236273891610955
10.46892786026001
-1.0,-21.004194654215993,-4.530492372798212
-1.0,-3.871320979158334,-1.0501931289754154
0.0,72.67691725860081,15.183076525219015
1474.4768230601296,1506.038738967977,1500,1714.9092526178115,-18.995805345784007,-36.128679020841666,7.3230827413991975
10.476899862289429
-0.0,-21.00785240914609,-4.697886876240516
-1.0,-3.8776797098599474,-1.0812095447111587
0.0,72.67750583985872,15.766343146826673
1474.6952723903557,1505.6927446732911,1500,1715.4873192194054,-18.99214759085391,-36.12232029014005,7.322494160141273
10.483364582061768
-1.0,-21.011297381279277,-4.833698987929097
-1.0,-3.883797105694242,-1.106368132968403
0.0,72.67812277995304,16.236117532919646
1474.591298557517,1505.9128499390322,1500,1716.074313072414,-18.988702618720723,-36.11620289430576,7.321877220046963
10.490300178527832
-0.0,-21.01457143921091,-4.979457595867273
-1.0,-3.8897089396550015,-1.1333075620102746
0.0,72.67875679803926,16.739564254952725
1474.6805142094615,1505.788098248416,1500,1716.606303914557,-18.98542856078909,-36.110291060345,7.321243201960739
10.49753475189209
-0.0,-21.01770569954462,-5.131456608572191
-1.0,-3.8954422969657685,-1.1615284324182378
0.0,72.67939974903017,17.266564344733354
1474.7381953958463,1505.7041198743461,1500,1717.1720270296357,-18.98229430045538,-36.10455770303423,7.320600250969834
10.50387978553772
3.0,-21.00054749668849,-5.264861003556858
3.0,-3.877216435444474,-1.1859631090745086
7.0,72.72489473064124,17.723394083700345
1479.4421184766497,1500.3948153263775,1500,1732.5399799020854,-18.99945250331151,-36.122783564555526,7.275105269358762
10.511330604553223
-1.0,-21.008895618913755,-5.42129931321918
-2.0,-3.8890554082064597,-1.2150769860758597
-2.0,72.71347021285314,18.268653574937666
1473.7231654993673,1506.8395306097796,1500,1715.0717144988964,-18.991104381086245,-36.11094459179354,7.286529787146858
10.518527746200562
-1.0,-21.015702130778408,-5.572527245603469
-1.0,-3.899047785490332,-1.2431557181755681
-1.0,72.70527728183872,18.792183768377647
1473.9851437488203,1506.5679883953403,1500,1716.4109962834357,-18.984297869221592,-36.10095221450967,7.294722718161278
10.525549411773682
-1.0,-21.02136722192474,-5.720132256125574
-1.0,-3.90766369218597,-1.2705856408576959
-1.0,72.69944651865787,19.302516305992672
1474.1936417200438,1506.3443150631251,1500,1717.582521729626,-18.97863277807526,-36.09233630781403,7.3005534813421376
10.532357454299927
-1.0,-21.02618416300464,-5.86322928174245
-1.0,-3.9152479146552466,-1.2972828212144702
-1.0,72.69534166034424,19.798711845561094
1474.3428816291128,1506.1847994807797,1500,1718.5858716075686,-18.97381583699536,-36.08475208534475,7.304658339655762
10.538978338241577
-1.0,-21.03036795335604,-6.002624342155633
-1.0,-3.922053470613257,-1.3230576534307292
-0.0,72.69249708549775,20.274801059632992
1474.4583684185538,1506.0802019824582,1500,1719.4431324540076,-18.96963204664396,-36.07794652938674,7.307502914502247
10.546275854110718
-19.0,-21.171256535450926,-6.157096684588228
-42.0,-4.232199575982364,-1.354016865588525
-279.0,70.6504753672982,20.79195739706747
1419.5474754896732,1599.4254358300827,1500,1480.0,-18.828743464549074,-35.767800424017636,9.349524632701806
10.553329467773438
5.0,-21.137691493988733,-6.306193794108582
11.0,-4.1561709924862384,-1.3833447809863157
78.0,71.19818760869458,21.29446745541808
1483.6191537634368,1490.3524885253746,1500,1883.5413816011128,-18.862308506011267,-35.84382900751376,8.80181239130542
10.56032919883728
3.0,-21.11374620473226,-6.453994407110678
8.0,-4.101708656487922,-1.4120331462423223
57.0,71.599240757361,21.7951478380068
1481.4810422480134,1494.0712786721772,1500,1841.6601967163488,-18.88625379526774,-35.89829134351208,8.400759242639005
10.567600965499878
2.0,-21.096831434940768,-6.607294985341089
5.0,-4.063011571849145,-1.4417053177056476
40.0,71.8929371622396,22.32136462412453
1479.6416792177797,1497.305964519725,1500,1806.0941458020113,-18.903168565059232,-35.936988428150855,8.107062837760397
10.57534384727478
2.0,-21.085052186874126,-6.770684755414451
4.0,-4.035834037209312,-1.4728195930245565
28.0,72.10804545406694,22.876147164160432
1478.2505720724319,1499.6914322058867,1500,1781.2502989424804,-18.914947813125874,-35.96416596279069,7.891954545933062
10.581549644470215
1.0,-21.077021602190907,-6.90140909965831
3.0,-4.017068740007794,-1.4978138335250026
25.0,72.26562401227946,23.326370376656445
1477.886420383983,1500.3760722079421,1500,1776.4795738283035,-18.922978397809093,-35.982931259992206,7.734375987720542
10.589688539505005
1.0,-21.07172475302687,-7.072874488390459
2.0,-4.004441610320569,-1.5304513906617312
14.0,72.38108755589997,23.91645609955265
1476.6962210091383,1502.4276127598337,1500,1753.653501269428,-18.92827524697313,-35.99555838967943,7.618912444100035
10.595654964447021
1.0,-21.068418945358758,-7.198597721084939
1.0,-3.996288472223064,-1.5542949458778963
14.0,72.46571977271276,24.34883465461969
1476.5718510351232,1502.674287969849,1500,1754.4227136185932,-18.931581054641242,-36.003711527776936,7.5342802272872476
10.602792263031006
0.0,-21.066560746286893,-7.348925919311955
1.0,-3.991391564070433,-1.5828102962715183
9.0,72.52778049441501,24.867628349686484
1476.0078017466587,1503.6485152599457,1500,1743.3966752702793,-18.933439253713107,-36.00860843592957,7.472219505584985
10.609445333480835
0.0,-21.06575257126496,-7.489203416917143
0.0,-3.988859878445055,-1.6091677685794636
7.0,72.5733161085449,25.34556703451959
1475.7664948732502,1504.0805076696884,1500,1740.2945610857153,-18.93424742873504,-36.011140121554945,7.426683891455104
10.616577863693237
0.0,-21.065703587975978,-7.639369802466902
0.0,-3.988041575346294,-1.637743809206337
5.0,72.60675275788087,25.86655283597823
1475.54335625536,1504.471439560308,1500,1736.144371580554,-18.934296412024022,-36.011958424653706,7.393247242119132
10.623693943023682
-0.0,-21.06620109922795,-7.789263492958902
-0.0,-3.9884598712906083,-1.6661611902053415
3.0,72.6313305513388,26.384182395695554
1475.4035550782942,1504.7230666173436,1500,1734.1983580579276,-18.93379890077205,-36.01154012870939,7.36866944866119
10.63068675994873
-0.0,-21.067089596026626,-7.936581793647517
-0.0,-3.9897661117468033,-1.6940685040734893
3.0,72.64942140183678,26.892379708987555
1475.301249106804,1504.9104248124647,1500,1732.9688242471714,-18.932910403973374,-36.0102338882532,7.350578598163227
10.637709379196167
-0.0,-21.068255424942286,-8.084521060514058
-0.0,-3.9917054211652356,-1.7220540982542605
2.0,72.66276168281222,27.401865706743042
1475.229627603035,1505.0434026208623,1500,1732.1075539970918,-18.931744575057714,-36.008294578834764,7.337238317187779
10.644544839859009
-0.0,-21.06961556498146,-8.228621963094572
-0.0,-3.9940915594607986,-1.7492631842262056
1.0,72.67262253395398,27.89612154284924
1475.1732229593604,1505.152554832441,1500,1731.7144746240529,-18.93038443501854,-36.0059084405392,7.327377466046012
10.651929140090942
-0.0,-21.07110941252943,-8.384157076289016
-0.0,-3.9967885174342612,-1.7788681498318575
1.0,72.67993452706743,28.435168641788184
1475.1584188641411,1505.176992629578,1500,1731.331785310135,-18.92889058747057,-36.00321148256574,7.320065472932571
10.65908408164978
-0.0,-21.072692768155623,-8.534830479103164
-0.0,-3.9996970450044245,-1.8076593040216287
1.0,72.68537892385402,28.958503564130833
1475.128377248958,1505.237388853743,1500,1731.4339650392453,-18.927307231844377,-36.000302954995576,7.314621076145986
10.666043758392334
-0.0,-21.074333435161602,-8.681666836293573
-0.0,-4.002744790218173,-1.8352584907599074
1.0,72.68945447893337,29.458610277401636
1475.1071094370377,1505.2947431758218,1500,1731.6475244860342,-18.925666564838398,-35.99725520978183,7.310545521066628
10.672958612442017
-0.0,-21.0760079979161,-8.827419430284746
-0.0,-4.005879081338271,-1.862956649796041
0.0,72.69252634177575,29.9612164938112
1475.0967704631291,1505.3141322616968,1500,1731.8924412328736,-18.9239920020839,-35.99412091866173,7.3074736582242545
10.67989182472229
-0.0,-21.077699463791582,-8.973545544416705
-0.0,-4.009061643665085,-1.8907465902075893
0.0,72.69486185476089,30.46534672537511
1475.0945256119912,1505.3255480419025,1500,1732.2230865155489,-18.922300536208418,-35.990938356334915,7.305138145239115
10.721214532852173
-2.0,-21.162897120413202,-9.847907442098304
-4.0,-4.154556065049547,-2.062577629012709
-24.0,71.68759020994412,33.431739905663775
1471.5360905742762,1510.1516624218118,1500,1680.3319460568173,-18.837102879586798,-35.84544393495045,8.312409790055879
10.765601634979248
0.0,-21.1467396513425,-10.786565059983975
1.0,-4.1118120959244,-2.245056701472733
10.0,72.12562668482177,36.63256840408274
1476.2023293238572,1503.3775375328808,1500,1757.8030331984255,-18.8532603486575,-35.8881879040756,7.87437331517823
10.80047082901001
0.0,-21.135349695302423,-11.523547747537561
1.0,-4.081374875880584,-2.387371927007688
9.0,72.44618894771281,39.158242265319146
1476.1806756441156,1503.4673089478092,1500,1760.0008438662483,-18.864650304697577,-35.918625124119416,7.553811052287185
10.835837364196777
-1.0,-21.15615530176436,-12.27176765843413
0.0,-4.065079746655307,-2.5311377745237147
9.0,72.75463622612504,41.73184204912064
1474.9029361893324,1504.0215659599328,1500,1762.824109727419,-18.84384469823564,-35.93492025334469,7.245363773874955
10.870308876037598
-6.0,-21.350793933611648,-13.007731261771825
-8.0,-4.3354984813936355,-2.6806106686920743
-39.0,71.42601224616129,44.19429417390872
1465.6147810854277,1516.9037092036638,1500,1662.3216837557286,-18.649206066388352,-35.664501518606365,8.573987753838708
10.913027048110962
-4.0,-21.52296519437932,-13.92715812394913
-5.0,-4.559607353078924,-2.8753572344297917
-21.0,70.51068761837467,47.2061969389642
1468.497335948359,1513.038287234434,1500,1699.2417832547949,-18.47703480562068,-35.440392646921076,9.48931238162532
10.947728872299194
-8.0,-21.796421259085463,-14.683585669132427
-12.0,-4.963010700595234,-3.047627723616617
-54.0,68.6507121240092,49.589042012461405
1460.9496169413933,1523.7342637351132,1500,1629.8726441120396,-18.203578740914537,-35.036989299404766,11.349287875990795
10.98276686668396
-7.0,-22.049623922964493,-15.456123469051413
-8.0,-5.250942473154964,-3.231597697283314
-35.0,67.4331160677784,51.951521994975714
1462.5256145796175,1518.5001152404598,1500,1668.930861431538,-17.950376077035507,-34.749057526845036,12.566883932221598
11.017114400863647
-7.0,-22.300083425770588,-16.222028495940112
-8.0,-5.526294220667175,-3.421426770198063
-25.0,66.56532490277235,54.23789263766587
1462.576727020939,1518.309614121062,1500,1689.532043716926,-17.699916574229412,-34.473705779332825,13.434675097227657
11.052297592163086
-14.0,-22.77616920023773,-17.02338310476615
-19.0,-6.184619409181998,-3.6390273160982205
-90.0,63.40643058266353,56.46888438718114
1448.525695719372,1537.839378585697,1500,1549.905923920978,-17.22383079976227,-33.815380590818,16.593569417336468
11.094035625457764
-8.0,-23.117624906016545,-17.988421629583243
-9.0,-6.55901689015662,-3.91255477650833
-26.0,62.33097429335962,59.066964364880704
1460.1153200481508,1521.0290933179037,1500,1683.0009805135871,-16.882375093983455,-33.44098310984338,17.669025706640383
11.133929252624512
-6.0,-23.362419327619712,-18.92040542577843
-8.0,-6.866717228892263,-4.186506130720962
-20.0,61.54238313534698,61.52234801819606
1463.0922385842264,1519.3994686482897,1500,1695.8303848607968,-16.637580672380288,-33.13328277110774,18.457616864653016
11.168892860412598
-6.0,-23.56615101823453,-19.74425633349821
-3.0,-6.989110951828003,-4.431085621901491
19.0,62.20262314847291,63.70017185007693
1465.0813706408433,1512.7707023340902,1500,1782.3120652751406,-16.43384898176547,-33.010889048172,17.797376851527094
11.20490312576294
-9.0,-23.87253237081778,-20.604054850137167
-12.0,-7.432676127431975,-4.698513206327151
-27.0,61.21525860604015,65.90152842099016
1458.718358810574,1526.9615508059076,1500,1684.9731833658216,-16.12746762918222,-32.567323872568025,18.784741393959848
11.239680528640747
-5.0,-24.05739729691257,-21.440548047669925
-6.0,-7.651256273186021,-4.9648813069117415
22.0,61.97070848426303,68.06018083411229
1465.406550338684,1517.2676227830086,1500,1792.8948034675468,-15.942602703087433,-32.34874372681398,18.029291515736976
11.27414321899414
-11.0,-24.45048261394213,-22.283212435681182
-20.0,-8.328539778473147,-5.251841652677343
-64.0,59.77882967149522,70.11994956879488
1451.5627897352579,1540.5425467065918,1500,1611.54062552778,-15.549517386057872,-31.671460221526853,20.22117032850478
11.316012144088745
-7.0,-24.73693924682555,-23.3189155943304
-13.0,-8.88500611646689,-5.6238812018413356
-38.0,58.193452241874155,72.5566411033091
1459.5182346625334,1530.5314405575205,1500,1662.0307812303442,-15.263060753174452,-31.11499388353311,21.80654775812584
11.35050082206726
8207.0,258.3630211279307,-14.406838192027415
8083.0,269.649852072585,3.667885231886576
8524.0,351.75661219312985,84.6704821819778
1600.0,1400.0,1500,2050.0,-298.3630211279307,-309.649852072585,-271.75661219312985
11.38587737083435
-2160.0,181.9527755085974,-7.971148240839578
-2133.0,194.08758554940727,10.542456050880869
-2253.0,271.91792117370795,94.30743912752837
1600.0,1600.0,1500,2050.0,-221.9527755085974,-234.08758554940727,-191.91792117370795
11.422571897506714
-1525.0,126.00081334002363,-3.3476380759294964
-1511.0,138.66837540952451,15.628908906171127
-1599.0,213.27215619026416,102.130309068658
1600.0,1600.0,1500,2050.0,-166.00081334002363,-178.66837540952451,-133.27215619026416
11.456810712814331
-1195.0,85.07278118961507,-0.43484683307293626
-1189.0,97.96331956160648,18.983056911562052
-1255.0,170.29529016308192,107.96073384538107
1600.0,1600.0,1500,2050.0,-125.07278118961507,-137.96331956160648,-90.29529016308192
11.491525650024414
-863.0,55.12227687388426,1.478877253579916
-861.0,68.08494027649324,21.346653803642205
-908.0,138.78156035798182,112.77859317533061
1400.0,1600.0,1500,2050.0,-95.12227687388426,-108.08494027649324,-58.78156035798182
11.535637140274048
-495.0,33.26673804127455,2.946433684042532
-497.0,46.19611785442001,23.383100710402147
-518.0,115.93948429426655,117.88763224430146
1400.0,1600.0,1500,2050.0,-73.26673804127455,-86.19611785442001,-35.93948429426654
11.57118844985962
-447.0,17.36365497842756,3.5636722604484365
-454.0,30.039138746323218,24.45187653453234
-469.0,99.23785688570356,121.42016344533175
1400.0,1600.0,1500,2050.0,-57.36365497842756,-70.03913874632322,-19.237856885703568
11.612481117248535
-280.0,5.802654736693526,3.8032959539918085
-287.0,18.204406796024912,25.203033835235303
-293.0,87.17342090181914,125.01556741586575
1400.0,1600.0,1500,2050.0,-45.802654736693526,-58.20440679602491,-7.173420901819148
11.647656202316284
-242.0,-2.7029532426480927,3.708234165735758
-254.0,9.24800566232603,25.5285537107516
-298.0,76.67577343720514,127.71430783368974
1400.0,1600.0,1500,1918.4772541636332,-37.29704675735191,-49.24800566232603,3.324226562794859
11.682323217391968
-173.0,-8.68885123251913,3.4069948416484315
-184.0,2.8697827085091703,25.628022721724015
-173.0,70.67468630457603,130.16484320355343
1400.0,1600.0,1500,1828.23929514377,-31.31114876748087,-42.86978270850917,9.325313695423976
11.724982738494873
-101.0,-13.003205667772274,2.8523215175285115
-111.0,-1.8563076326093082,25.548809627872913
-103.0,66.29335336545427,132.99437163373804
1400.0,1600.0,1500,1742.7464017129137,-26.996794332227726,-38.14369236739069,13.706646634545733
11.767111778259277
-76.0,-16.212476601361153,2.169212677575053
-87.0,-5.519325320278611,25.31645287251417
-112.0,61.57672465194382,135.58533944948854
1400.0,1600.0,1500,1667.367838330105,-23.787523398638847,-34.48067467972139,18.423275348056176
11.802122116088867
-62.0,-18.37602463293684,1.5258618472110694
-72.0,-8.048712488865018,25.034672405036147
-55.0,59.64618043977677,137.67360081844498
1400.0,1600.0,1500,1758.4794820813945,-21.62397536706316,-31.951287511134982,20.35381956022323
11.837317943572998
-44.0,-19.941501961357236,0.8240374653766225
-54.0,-9.953094540227827,24.68431042760391
-46.0,58.01363892168442,139.71568781318774
1413.241206994292,1587.4660351543225,1500,1750.770314024797,-20.058498038642764,-30.046905459772173,21.98636107831558
11.872302293777466
-34.0,-21.13682107303735,0.08454423887238083
-43.0,-11.468408296255411,24.283117489732774
-69.0,55.59330766916908,141.660530539801
1424.0775402005165,1576.7120983367452,1500,1686.9341181363775,-18.86317892696265,-28.53159170374459,24.406692330830918
11.907275438308716
-26.0,-22.063173005625977,-0.6870585186602746
-33.0,-12.633199433909578,23.841345983859345
-75.0,52.97911042604888,143.51325031382595
1433.5250482517263,1564.3535383659419,1500,1661.7597064221982,-17.936826994374023,-27.366800566090422,27.020889573951123
11.950228691101074
-14.0,-22.68508514670618,-1.6613647703048726
-18.0,-13.388696216418143,23.26581741899339
-48.0,50.93562487292891,145.70367561298286
1452.2150203435003,1540.7663575466154,1500,1705.8653199907064,-17.31491485329382,-26.611303783581857,29.064375127071084
11.98551058769226
-11.0,-23.07675297010724,-2.475666420789621
-12.0,-13.81681884202743,22.77888068031828
-43.0,49.41868992116096,147.44433870166282
1456.8094592655893,1533.3279063453901,1500,1710.7689607276366,-16.92324702989276,-26.18318115797257,30.581310078839035
12.02994966506958
-6.0,-23.363158679757156,-3.513920347771226
-7.0,-14.1171124076362,22.151431622016464
-57.0,46.87512213059735,149.52776115809613
1462.3862090098535,1526.4951445034144,1500,1673.3928624915368,-16.636841320242844,-25.8828875923638,33.12487786940265
12.06470537185669
2.0,-23.286231656855204,-4.323099886916455
5.0,-13.940135471150974,21.66647038237504
-22.0,46.123548650056705,151.13326995749637
1476.2988916547024,1508.477085596208,1500,1746.043206863479,-16.713768343144796,-26.059864528849026,33.876451349943295
12.106729745864868
6.0,-23.02959223262641,-5.291019388492
11.0,-13.49340551079056,21.099878504780943
-10.0,45.709761072682504,153.05178558220004
1482.333347552047,1500.1373672088812,1500,1771.4191119152022,-16.97040776737359,-26.50659448920944,34.290238927317496
12.141070365905762
1.0,-22.99849748508457,-6.080823985215103
1.0,-13.456730525656184,20.63773715979555
-100.0,42.27166378829502,154.5033098650001
1471.9353937414642,1515.125535340694,1500,1571.2493933075393,-17.00150251491543,-26.543269474343816,37.72833621170498
12.183872938156128
11.0,-22.5337385287156,-7.045368936356688
15.0,-12.827461958554832,20.088759133546514
-22.0,41.350530641584356,156.27314992923417
1489.2720670218619,1493.625136348336,1500,1737.6881260750301,-17.4662614712844,-27.17253804144517,38.649469358415644
12.218399286270142
24.0,-21.694174932100857,-7.794291298515831
32.0,-11.705318169306135,19.684346539411152
22.0,42.11011801020525,157.72844401993797
1508.824478283544,1468.9020847225588,1500,1837.3773482899378,-18.305825067899143,-28.294681830693865,37.88988198979475
12.252822160720825
19.0,-21.056582800967625,-8.519074222108994
21.0,-10.993300116943754,19.305789257323248
-83.0,39.25175198841785,159.08048183521666
1501.9760570460396,1481.6295469789184,1500,1603.3888602472289,-18.943417199032375,-29.006699883056246,40.74824801158215
12.294907569885254
18.0,-20.315478518474848,-9.37405944793017
20.0,-10.146038486418533,18.87888583638746
-71.0,36.26546428239001,160.60563929666046
1501.465355807534,1481.6298209442878,1500,1622.7540352521999,-19.684521481525152,-29.853961513581467,43.73453571760999
12.33017373085022
24.0,-19.457121824189056,-10.060311661126391
27.0,-9.196282340418342,18.554778749289582
-92.0,33.01568394021228,161.76913346475195
1513.1619030332672,1469.133665071757,1500,1571.5161441090577,-20.542878175810944,-30.803717659581658,46.98431605978772
12.372299194335938
6688.0,262.29471038716844,0.9889745837851915
6616.0,269.5244851095921,29.908879643859677
7134.0,333.56197978780904,175.82201795724578
1600.0,1400.0,1500,2050.0,-302.29471038716844,-309.5244851095921,-253.56197978780904
12.413609027862549
-1803.0,187.79889684802052,8.747184397535033
-1782.0,195.9182442644539,38.0018560148549
-2066.0,248.21235037627417,186.0747411540002
1600.0,1600.0,1500,2050.0,-227.79889684802052,-235.9182442644539,-168.21235037627417
12.44911527633667
6364.0,413.7173283817104,23.434465985461195
6288.0,419.38489537909203,52.90603886269252
6822.0,490.80448509283593,203.52769595820882
1600.0,1400.0,1500,2050.0,-453.7173283817104,-459.38489537909203,-410.80448509283593
12.490857601165771
-2740.0,299.31549075736854,35.93037448638746
-2711.0,306.32516683767545,65.68312304350479
-3083.0,362.29441221343257,218.63179027613452
1600.0,1600.0,1500,2050.0,-339.31549075736854,-346.32516683767545,-282.29441221343257
12.525878667831421
5590.0,495.056803620825,53.265195133002415
5523.0,499.91736043092783,83.20566094881457
6037.0,574.0304490446464,238.76314196218834
1600.0,1400.0,1500,2050.0,-535.056803620825,-539.9173604309278,-494.0304490446464
12.560287952423096
-3954.0,358.9862689159223,65.61893965957617
-3914.0,365.3444740909781,95.7673213916633
-4464.0,420.6410964527536,253.21834718296253
1600.0,1600.0,1500,2050.0,-398.9862689159223,-405.3444740909781,-340.6410964527536
12.59458327293396
-2898.0,259.58218046159396,74.52176507270329
-2870.0,266.94163040001763,104.91994262937676
-3328.0,306.5591991672393,263.72794634588837
1600.0,1600.0,1500,2050.0,-299.58218046159396,-306.94163040001763,-226.55919916723929
12.635846614837646
4995.0,465.6957425869843,93.737372569575
4940.0,470.8185574351667,124.35130630373479
5486.0,532.9906432542284,285.72689400892983
1600.0,1400.0,1500,2050.0,-505.6957425869843,-510.8185574351667,-452.99064325422836
12.670489072799683
4347.0,616.2802363024624,115.0838960953514
4295.0,619.7700253025548,145.8442713487954
4767.0,698.4375188837129,309.9659482414678
1600.0,1400.0,1500,2050.0,-656.2802363024624,-659.7700253025548,-618.4375188837129
12.704776048660278
-4902.0,448.18822829804583,130.45337275722255
-4863.0,453.22407790007884,161.36547661324198
-5625.0,505.9366089246472,327.2798127496196
1600.0,1600.0,1500,2050.0,-488.18822829804583,-493.22407790007884,-425.9366089246472
12.738696813583374
-3616.0,325.52824616979694,141.4950741994844
-3584.0,331.6399755133695,172.61566988391783
-4169.0,364.51368706306323,339.644743467078
1600.0,1600.0,1500,2050.0,-365.52824616979694,-371.6399755133695,-284.51368706306323
12.775765419006348
-2412.0,236.125720648779,150.24831944574095
-2391.0,243.0132852612495,181.62383346780763
-2802.0,260.6363731601733,349.30629462373486
1600.0,1600.0,1500,2050.0,-276.125720648779,-283.0132852612495,-180.6363731601733
12.819878578186035
-1476.0,171.03919714971954,157.79278709173715
-1462.0,178.49041927965413,189.50339728431229
-1732.0,184.17969333017004,357.43811256286074
1600.0,1600.0,1500,2050.0,-211.03919714971954,-218.49041927965413,-104.17969333017005
12.854096174240112
-1389.0,123.51998747326496,162.01981531906046
-1378.0,131.39533197080098,193.99479326800486
-1644.0,127.98958600116859,361.8120852835399
1600.0,1600.0,1500,2050.0,-163.51998747326496,-171.39533197080098,-47.98958600116859
12.888014078140259
-1026.0,88.72652772719866,165.02874661669387
-1017.0,96.87321299278221,197.28385547461892
-1257.0,85.29934745670745,364.7092667323178
1600.0,1600.0,1500,2050.0,-128.72652772719866,-136.87321299278221,-5.299347456707457
12.921715497970581
-753.0,63.331187490246165,167.16333914396324
-748.0,71.68521073787501,199.6973902874412
-956.0,53.10953238023602,366.49684150389254
1600.0,1600.0,1500,2050.0,-103.33118749024617,-111.68521073787501,26.890467619763985
12.955599069595337
-549.0,44.74194268412498,168.6793666308419
-542.0,53.31889350099436,201.50419009312765
-726.0,28.5078912808707,367.462858648088
1400.0,1600.0,1500,2050.0,-84.74194268412498,-93.31889350099436,51.4921087191293
12.997203588485718
-330.0,31.00538360095129,169.96921981467867
-324.0,39.83279876367176,203.16208880017666
-462.0,9.263244268692588,367.84847011367515
1400.0,1600.0,1500,2029.7082969683947,-71.00538360095129,-79.83279876367176,70.73675573130741
13.040133714675903
-231.0,21.07338550210074,170.8738677435319
-225.0,30.15353220308333,204.45771963037868
-329.0,-4.888005193318065,367.6383640554846
1400.0,1600.0,1500,1720.6294746904134,-61.07338550210074,-70.15353220308333,84.88800519331807
13.08162808418274
-175.0,13.79084550110916,171.44618580642376
-165.0,23.32448293301885,205.42410848633668
-274.0,-16.24165587805514,366.9658440514588
1400.0,1600.0,1500,1575.1066727320924,-53.79084550110916,-63.32448293301885,96.24165587805514
13.123482942581177
-126.0,8.502390799374545,171.80200149118141
-115.0,18.507970556391854,206.19919382497707
-201.0,-24.66473723665078,365.9328581085075
1400.0,1600.0,1500,1549.4842806216727,-48.502390799374545,-58.507970556391854,104.66473723665078
13.158751249313354
-118.0,4.347580308487714,171.95536541990543
-101.0,14.947237303803362,206.72602971469095
-212.0,-32.12088501623484,364.8007364137436
1400.0,1600.0,1500,1489.9666730891402,-44.347580308487714,-54.94723730380336,112.12088501623484
13.194060564041138
-86.0,1.3139026305515316,172.00175685511525
-64.0,12.701404178635862,207.17452273357287
-164.0,-37.91784858179639,363.4618560434098
1400.0,1583.6178093884118,1500,1503.7273426796544,-41.31390263055153,-52.70140417863586,117.91784858179639
13.229361295700073
-62.0,-0.8727761476855278,171.9709528368508
-41.0,11.267118588920297,207.57260948120233
-124.0,-42.28699107466406,361.96698717991507
1402.5071891338398,1546.294848278364,1500,1545.5503025937276,-39.12722385231447,-51.2671185889203,122.28699107466406
13.26414155960083
-55.0,-2.7842970563281924,171.8740916802966
-30.0,10.235695772157953,207.92839980868223
-126.0,-46.67398740193647,360.3453784123675
1409.990919258116,1530.6926106674152,1500,1519.7497918403321,-37.21570294367181,-50.23569577215795,126.67398740193647
13.306697845458984
-40.0,-4.4772514526509966,171.68355968999853
-8.0,9.896976901317387,208.3495028788848
-105.0,-51.13572059359262,358.1696831623401
1433.6049976467775,1495.9744341116036,1500,1540.8324832247652,-35.522748547349,-49.89697690131739,131.13572059359262
13.349787712097168
6421.0,272.17232984507274,183.4098068121226
6321.0,282.44570042432633,220.52873734172871
7478.0,271.4655424138035,369.8810772264549
1600.0,1400.0,1500,2050.0,-312.17232984507274,-322.44570042432633,-191.4655424138035
13.384767293930054
5781.0,474.39450684223164,200.00392828528192
5695.0,481.66988402626566,237.37757814456074
6742.0,507.30697180379843,387.62706771809627
1600.0,1400.0,1500,2050.0,-514.3945068422316,-521.6698840262657,-427.30697180379843
13.427830696105957
3431.0,622.1340793611001,226.7949900238211
3380.0,627.2187922782432,264.3888000330158
4002.0,679.6376812044297,416.8940924029502
1600.0,1400.0,1500,2050.0,-662.1340793611001,-667.2187922782432,-599.6376812044297
13.46313738822937
3055.0,729.9924165810497,252.56878157222926
3010.0,733.4774361439693,290.2810901842181
3567.0,805.478099047004,445.3142316865992
1600.0,1400.0,1500,2050.0,-769.9924165810497,-773.4774361439693,-725.478099047004
13.498307466506958
2237.0,808.658992237433,281.01034562573466
2203.0,810.9768962056594,318.80804490406837
2609.0,897.2886683582818,476.89526279189215
1600.0,1400.0,1500,2050.0,-848.658992237433,-850.9768962056594,-817.2886683582818
13.533494710922241
1628.0,865.9594062155231,311.48003860189783
1604.0,867.4268150514491,349.3283361509672
1902.0,964.191495671779,510.8156081782411
1600.0,1400.0,1500,2050.0,-905.9594062155231,-907.4268150514491,-884.191495671779
13.569340705871582
1162.0,907.62263657842,344.01554062499275
1145.0,908.4712804390732,381.8905773275935
1358.0,1012.8647148565908,547.1060891134924
1600.0,1400.0,1500,2050.0,-947.62263657842,-948.4712804390732,-932.8647148565908
13.604737043380737
854.0,937.842740924859,377.216657994222
842.0,938.2422035652357,415.07362431681287
999.0,1048.1972463873217,584.1726955359567
1600.0,1400.0,1500,2050.0,-977.842740924859,-978.2422035652357,-968.1972463873216
13.639750480651855
624.0,959.6900747699721,410.81687576334303
615.0,959.7644441604851,448.68102238557617
730.0,1073.768142895725,621.7718251199852
1600.0,1400.0,1500,2050.0,-999.6900747699721,-999.7644441604851,-993.7681428957251
13.675093173980713
445.0,975.4123419262926,445.2877843561314
438.0,975.2524000140692,483.17255322494475
521.0,1092.1975150242868,660.4222425819789
1600.0,1400.0,1500,2050.0,-1015.4123419262926,-1015.2524000140692,-1012.1975150242868
13.70961856842041
326.0,986.6549913941067,479.3557304262446
321.0,986.3271381025115,517.2066036998984
383.0,1105.403441803979,698.5648578816722
1600.0,1400.0,1500,2050.0,-1026.6549913941067,-1026.3271381025115,-1025.403441803979
13.752959728240967
184.0,994.6225682510317,522.460269070453
181.0,994.1753546397865,560.3202047719203
216.0,1114.7900527914292,746.9087935387521
1600.0,1400.0,1500,2050.0,-1034.6225682510317,-1034.1753546397865,-1034.7900527914292
13.789043664932251
154.0,1000.1968373097577,558.5548854093926
152.0,999.6657484212074,596.3618113117074
183.0,1121.385221453687,787.3179782666481
1600.0,1400.0,1500,2050.0,-1040.1968373097577,-1039.6657484212074,-1041.385221453687
13.824561595916748
108.0,1004.0232603998579,594.216671790301
106.0,1003.4342167159841,632.0033932300298
128.0,1125.9413692743215,827.3104283398307
1600.0,1400.0,1500,2050.0,-1044.023260399858,-1043.4342167159841,-1045.9413692743215
13.859983444213867
72.0,1006.574305563264,629.8649145193173
71.0,1005.9462263698047,667.6651278804936
86.0,1129.00926348144,867.3531667859469
1600.0,1400.0,1500,2050.0,-1046.574305563264,-1045.9462263698047,-1049.00926348144
13.894931077957153
46.0,1008.1957950734447,665.105221594897
46.0,1007.5424750557193,702.8424827043594
57.0,1130.9920436157918,906.8204181973432
1600.0,1400.0,1500,2050.0,-1048.1957950734447,-1047.5424750557193,-1050.9920436157918
13.937739849090576
22.0,1009.1408363196037,708.3007293377319
22.0,1008.4723193826801,746.0425556051613
28.0,1132.1847737984435,955.3421137705218
1600.0,1400.0,1500,2050.0,-1049.1408363196037,-1048.47231938268,-1052.1847737984435
13.972613096237183
13.0,1009.594662218173,743.51001774791
13.0,1008.9182472307255,781.2258488121396
18.0,1132.8033984934414,994.846106491946
1600.0,1400.0,1500,2050.0,-1049.594662218173,-1048.9182472307255,-1052.8033984934414
14.006799221038818
3.0,1009.6928165766878,778.0260580095558
3.0,1009.0137936506433,815.7218042618972
6.0,1133.0059406710918,1033.5791889807226
1600.0,1400.0,1500,2050.0,-1049.6928165766878,-1049.0137936506433,-1053.0059406710918
14.051913261413574
-4.0,1009.5344673653815,823.5702367299853
-3.0,1008.8566568642639,861.2315557292825
-2.0,1132.9080207120926,1084.6860058921661
1600.0,1400.0,1500,2050.0,-1049.5344673653815,-1048.8566568642639,-1052.9080207120926
14.087531089782715
-10.0,1009.1921531828018,859.5140259725786
-9.0,1008.5183003104214,897.1609627398818
-9.0,1132.5942175875664,1125.0395138582758
1600.0,1400.0,1500,2050.0,-1049.1921531828018,-1048.5183003104214,-1052.5942175875664
14.12260389328003
-13.0,1008.7189185035395,894.8931073799392
-13.0,1008.0509821651128,932.5149350622195
-13.0,1132.1263862168014,1164.7442007764676
1600.0,1400.0,1500,2050.0,-1048.7189185035395,-1048.0509821651128,-1052.1263862168014
14.157766103744507
-16.0,1008.153537284729,930.3432160511218
-16.0,1007.492901546439,967.9377300475501
-16.0,1131.5497464792816,1204.527135028509
1600.0,1400.0,1500,2050.0,-1048.153537284729,-1047.492901546439,-1051.5497464792816
14.199601173400879
-15.0,1007.5243370840965,972.4969102738588
-15.0,1006.8719659682117,1010.0331624397471
-16.0,1130.897340882904,1251.7881534482465
1600.0,1400.0,1500,2050.0,-1047.5243370840965,-1046.8719659682117,-1050.897340882904
14.241565465927124
-16.0,1006.851998630957,1014.7441810828082
-16.0,1006.2085494278765,1052.287739803114
-17.0,1130.1932979468916,1299.2706158077735
1600.0,1400.0,1500,2050.0,-1046.851998630957,-1046.2085494278765,-1050.1932979468916
14.276167392730713
-20.0,1006.1516053403973,1049.5625635626516
-20.0,1005.5175115516952,1087.0690759028469
-21.0,1129.4552212648491,1338.3155894821944
1600.0,1400.0,1500,2050.0,-1046.1516053403973,-1045.5175115516952,-1049.4552212648491
14.310569047927856
-21.0,1005.4341437215971,1084.1516417267571
-21.0,1004.8096757705164,1121.6196619020914
-22.0,1128.6959384907607,1377.1236080181823
1600.0,1400.0,1500,2050.0,-1045.4341437215971,-1044.8096757705164,-1048.6959384907607
14.354555606842041
-17.0,1004.7076017939044,1128.3457509265115
-16.0,1004.0929114598798,1165.7850569353102
-18.0,1127.924781734086,1426.740364899383
1600.0,1400.0,1500,2050.0,-1044.7076017939044,-1044.0929114598798,-1047.924781734086
14.388982772827148
-21.0,1003.9777732105804,1162.9110572049615
-21.0,1003.3729261485059,1200.3276255405456
-23.0,1127.1485249066707,1465.5424756578661
1600.0,1400.0,1500,2050.0,-1043.9777732105804,-1043.372926148506,-1047.1485249066707
14.423257112503052
-21.0,1003.2488459358185,1197.2948353847091
-21.0,1002.6538454724723,1234.6943583254508
-23.0,1126.3720699295477,1504.1505515163378
1600.0,1400.0,1500,2050.0,-1043.2488459358185,-1042.6538454724723,-1046.3720699295477
14.46637487411499
-17.0,1002.523833196761,1240.5185507910799
-17.0,1001.9386377414994,1277.9265252788193
-18.0,1125.5989490842023,1552.7407517784397
1600.0,1400.0,1500,2050.0,-1042.523833196761,-1041.9386377414994,-1045.5989490842023
14.500341176986694
-21.0,1001.8048889677191,1274.5440094280277
-21.0,1001.229424748401,1311.9338710287952
-23.0,1124.831692766317,1591.0670025405734
1600.0,1400.0,1500,2050.0,-1041.804888967719,-1041.229424748401,-1044.831692766317
14.534575939178467
-21.0,1001.0935389224401,1308.8228916851322
-21.0,1000.5277092991441,1346.1552113628163
-22.0,1124.0720987030286,1629.3700517451218
1600.0,1400.0,1500,2050.0,-1041.09353892244,-1040.5277092991441,-1044.0720987030286
14.569575071334839
-20.0,1000.3908495020517,1343.830932999582
-20.0,999.8345417755672,1381.1824024614968
-21.0,1123.3214290333956,1668.745854371917
1600.0,1400.0,1500,2050.0,-1040.3908495020517,-1039.8345417755672,-1043.3214290333956
14.610363721847534
-17.0,999.697551678639,1384.6070087069295
-17.0,999.1506420650342,1421.9166368758824
-18.0,1122.580554578856,1714.491309591201
1600.0,1400.0,1500,2050.0,-1039.697551678639,-1039.1506420650342,-1042.580554578856
14.645231246948242
-20.0,999.0141315523545,1419.4389680971444
-19.0,998.4764888150696,1456.7477047863097
-21.0,1121.8500604524818,1753.641680880123
1600.0,1400.0,1500,2050.0,-1039.0141315523545,-1038.4764888150696,-1041.8500604524818
14.680586814880371
-19.0,998.3408966680065,1454.7420660871817
-19.0,997.8123847672539,1491.9959533160836
-20.0,1121.1303233651217,1793.2264205288914
1600.0,1400.0,1500,2050.0,-1038.3408966680065,-1037.812384767254,-1041.1303233651217
14.715746402740479
-19.0,997.6780245563646,1489.8197763826927
-19.0,997.158504579221,1527.0544466627211
-20.0,1120.4215682114016,1832.6237209072356
1600.0,1400.0,1500,2050.0,-1037.6780245563646,-1037.158504579221,-1040.4215682114016
14.7509446144104
-19.0,997.0255982625465,1524.908064823286
-18.0,996.5149298265617,1562.1604013172175
-20.0,1119.723909486938,1872.0920623117613
1600.0,1400.0,1500,2050.0,-1037.0255982625465,-1036.5149298265617,-1039.723909486938
14.787433385848999
-18.0,996.3836323479275,1561.2655921182998
-17.0,995.881674619405,1598.4932016416424
-19.0,1119.037381600807,1912.916624380469
1600.0,1400.0,1500,2050.0,-1036.3836323479275,-1035.881674619405,-1039.037381600807
14.822546243667603
-18.0,995.7520919179237,1596.2273944979997
-18.0,995.2587043482172,1633.443612918973
-19.0,1118.361961058472,1952.1897751211648
1600.0,1400.0,1500,2050.0,-1035.7520919179237,-1035.2587043482172,-1038.361961058472
14.861058473587036
-16.0,995.1309065441826,1634.5521047707637
-16.0,994.6459493996585,1671.7520178314257
-17.0,1117.697582693263,1995.2390650841553
1600.0,1400.0,1500,2050.0,-1035.1309065441826,-1034.6459493996585,-1037.697582693263
14.895977020263672
-17.0,994.5199804490885,1669.2847507058564
-17.0,994.0433151901414,1706.4331779305385
-19.0,1117.0441515409457,2034.1865647802906
1600.0,1400.0,1500,2050.0,-1034.5199804490885,-1034.0433151901414,-1037.0441515409457
14.94190001487732
-13.0,993.9191999540124,1714.9237573956773
-13.0,993.4506895036739,1752.083831445756
-14.0,1116.4015515247052,2085.5085675628234
1600.0,1400.0,1500,2050.0,-1033.9191999540124,-1033.4506895036739,-1036.4015515247052
14.976246356964111
-17.0,993.3284389244232,1749.0464028064794
-17.0,992.8679478562506,1786.1589379134825
-18.0,1115.7696518051305,2123.782758034655
1600.0,1400.0,1500,2050.0,-1033.3284389244232,-1032.8679478562506,-1035.7696518051305
15.010624170303345
-17.0,992.7475627485671,1783.1687392855822
-17.0,992.2949574155377,1820.3007316865396
-18.0,1115.1483114208127,2162.1720270733445
1600.0,1400.0,1500,2050.0,-1032.7475627485671,-1032.2949574155377,-1035.1483114208127
15.04491114616394
-17.0,992.1764312426267,1817.193619018719
-16.0,991.7315798629463,1854.2727609433528
-18.0,1114.537382677566,2200.329277955247
1600.0,1400.0,1500,2050.0,-1032.1764312426267,-1031.7315798629463,-1034.537382677566
15.088358879089355
-13.0,991.6149007700008,1860.2763291339888
-13.0,991.1776734814719,1897.336711152065
-14.0,1113.9367136215697,2248.7238502027817
1600.0,1400.0,1500,2050.0,-1031.6149007700008,-1031.1776734814719,-1033.9367136215697
15.123137950897217
-16.0,991.0628257852879,1894.741502576798
-16.0,990.6330946767607,1931.821659521941
-17.0,1113.34614984189,2287.5036586671063
1600.0,1400.0,1500,2050.0,-1031.062825785288,-1030.6330946767607,-1033.34614984189
15.158406972885132
-15.0,990.5200599571324,1929.6742870838148
-15.0,990.0976990832794,1966.72160819542
-16.0,1112.7655357820931,2326.7049744437313
1600.0,1400.0,1500,2050.0,-1030.5200599571324,-1030.0976990832794,-1032.7655357820931
15.193369150161743
-15.0,989.9864569827923,1964.2920338422373
-15.0,989.5713423667767,2001.304077234726
-16.0,1112.194715692496,2365.5743435226223
1600.0,1400.0,1500,2050.0,-1029.9864569827923,-1029.5713423667767,-1032.194715692496
15.228477716445923
-15.0,989.4618711770593,1999.0251956919774
-15.0,989.0538808044369,2036.0625332466066
-16.0,1111.633534319375,2404.6573302362394
1600.0,1400.0,1500,2050.0,-1029.4618711770593,-1029.0538808044369,-1031.633534319375
15.262781858444214
-15.0,988.9461578960102,2032.9550965669996
-15.0,988.5451717023166,2069.942145058689
-16.0,1111.0818374016383,2442.720118457811
1600.0,1400.0,1500,2050.0,-1028.9461578960102,-1028.5451717023166,-1031.0818374016383
15.297928810119629
-14.0,988.4391738398833,2067.6957204440373
-14.0,988.0450736936948,2104.669624221841
-15.0,1110.5394720265808,2481.753254707742
1600.0,1400.0,1500,2050.0,-1028.4391738398833,-1028.0450736936948,-1030.5394720265808
15.342501163482666
-11.0,987.9407772674949,2111.7272682620487
-11.0,987.5534469502745,2148.705335158094
-12.0,1110.0062868825182,2531.2703966029712
1600.0,1400.0,1500,2050.0,-1027.940777267495,-1027.5534469502745,-1030.0062868825182
15.377805709838867
-14.0,987.4508281459346,2146.5880655189258
-14.0,987.0701533296233,2183.560929890772
-15.0,1109.4821324359634,2570.4457149231584
1600.0,1400.0,1500,2050.0,-1027.4508281459346,-1027.0701533296233,-1029.4821324359634
15.412344932556152
-14.0,986.969188252918,2180.675566944551
-14.0,986.5950564759723,2217.6458595140543
-15.0,1108.9668610536046,2608.758351060399
1600.0,1400.0,1500,2050.0,-1026.969188252918,-1026.5950564759723,-1028.9668610536046
15.456229448318481
-11.0,986.4957212445208,2223.9738043434963
-11.0,986.1280218869101,2260.8839924355384
-12.0,1108.460327083917,2657.3418119229095
1600.0,1400.0,1500,2050.0,-1026.4957212445208,-1026.1280218869101,-1028.460327083917
15.491159439086914
-13.0,986.0302926976096,2258.4155982768775
-13.0,985.6689169551476,2295.314338612643
-14.0,1107.9623869092663,2696.042399551785
1600.0,1400.0,1500,2050.0,-1026.0302926976096,-1025.6689169551476,-1027.9623869092663
15.525856256484985
-13.0,985.5727701337933,2292.6054922855155
-13.0,985.2176109920779,2329.5344278627686
-14.0,1107.472898976456,2734.532082692706
1600.0,1400.0,1500,2050.0,-1025.5727701337933,-1025.2176109920779,-1027.472898976456
15.56088376045227
-13.0,985.1230230298881,2327.1135369843787
-13.0,984.7739752380519,2364.0232020538247
-14.0,1106.9917238115406,2773.2932515383914
1600.0,1400.0,1500,2050.0,-1025.1230230298881,-1024.773975238052,-1026.9917238115406
15.59480357170105
-13.0,984.6809228185598,2360.5130237279786
-13.0,984.3378828629725,2397.4098797700444
-14.0,1106.518724023171,2810.8338084245333
1600.0,1400.0,1500,2050.0,-1024.6809228185598,-1024.3378828629725,-1026.518724023171
15.629096508026123
-13.0,984.2463428818144,2394.2668942056835
-12.0,983.9092089598481,2431.153361444913
-14.0,1106.0537642975914,2848.7657493658335
1600.0,1400.0,1500,2050.0,-1024.2463428818144,-1023.9092089598481,-1026.0537642975914
15.67241907119751
-10.0,983.8191585393107,2436.885412560767
-10.0,983.4878305332418,2473.7603406297085
-11.0,1105.5967113875795,2896.6630327369994
1600.0,1400.0,1500,2050.0,-1023.8191585393107,-1023.4878305332418,-1025.5967113875795
15.706388711929321
-12.0,983.399247032924,2470.2930073636185
-12.0,983.0736264840288,2507.1542953852386
-13.0,1105.147434097003,2934.201068689106
1600.0,1400.0,1500,2050.0,-1023.399247032924,-1023.0736264840288,-1025.147434097003
15.74809193611145
-10.0,982.9864875086209,2511.2876506691605
-10.0,982.6664775915052,2548.160427250485
-11.0,1104.7058032622244,2980.3043120211173
1600.0,1400.0,1500,2050.0,-1022.9864875086209,-1022.6664775915052,-1024.7058032622244
15.7860267162323
-11.0,982.5807609964163,2548.5665553642234
-11.0,982.2662664936064,2585.3662763634343
-11.0,1104.2716917312493,3022.1056275765836
1600.0,1400.0,1500,2050.0,-1022.5807609964163,-1022.2662664936064,-1024.2716917312493
15.829697370529175
-9.0,982.181950388978,2591.452292833965
-9.0,981.8728776657955,2628.2687170410904
-10.0,1103.844974341284,3070.3383670948688
1600.0,1400.0,1500,2050.0,-1022.181950388978,-1021.8728776657955,-1023.8449743412838
15.872854232788086
-9.0,981.7899404192979,2633.8295861378147
-9.0,981.4861973990301,2670.6043512395267
-10.0,1103.4255278951823,3117.935073672022
1600.0,1400.0,1500,2050.0,-1021.7899404192979,-1021.4861973990301,-1023.4255278951824
15.91451621055603
-9.0,981.4046176377333,2674.7121637973064
-9.0,981.1061137771101,2711.513089858914
-10.0,1103.013231137144,3163.9471676895064
1600.0,1400.0,1500,2050.0,-1021.4046176377333,-1021.1061137771101,-1023.0132311371441
15.956878662109375
-9.0,981.0258703886429,2716.270356914635
-9.0,980.7325166536267,2753.0452940912573
-10.0,1102.607964727915,3210.6200664306775
1600.0,1400.0,1500,2050.0,-1021.0258703886429,-1020.7325166536267,-1022.607964727915
15.99112606048584
-11.0,980.6535887867839,2749.860100965866
-11.0,980.3652976286758,2786.5985174245907
-12.0,1102.2096112196948,3248.341599355549
1600.0,1400.0,1500,2050.0,-1020.6535887867839,-1020.3652976286758,-1022.2096112196948
16.033318042755127
-9.0,980.2876646935906,2791.2217830461714
-9.0,980.0043500254548,2827.948011840912
-9.0,1101.8180550308825,3294.8315887485533
1600.0,1400.0,1500,2050.0,-1020.2876646935906,-1020.0043500254548,-1021.8180550308824
16.06895637512207
-10.0,979.9279916934261,2826.13824078471
-10.0,979.6495688668334,2862.895189511422
-11.0,1101.4331824207716,3334.142865655331
1600.0,1400.0,1500,2050.0,-1019.9279916934261,-1019.6495688668334,-1021.4331824207715
16.113052368164062
-8.0,979.5744650698717,2869.3340166780486
-8.0,979.3008508519627,2906.0791334671594
-9.0,1101.0548814642686,3382.6981241905155
1600.0,1400.0,1500,2050.0,-1019.5744650698717,-1019.3008508519627,-1021.0548814642686
16.146862268447876
-10.0,979.2269817821052,2902.442283685038
-10.0,978.9580943329697,2939.16990675926
-11.0,1100.683042026693,3419.9018735773325
1600.0,1400.0,1500,2050.0,-1019.2269817821052,-1018.9580943329697,-1020.6830420266931
16.1806800365448
-10.0,978.8854404414028,2935.550438808381
-10.0,978.6211992917775,2972.2387928478274
-11.0,1100.3175557387008,3457.064674667454
1600.0,1400.0,1500,2050.0,-1018.8854404414028,-1018.6211992917775,-1020.3175557387008
16.215105295181274
-10.0,978.5497412877941,2969.231200825457
-10.0,978.290067317073,3005.9505016032426
-10.0,1099.9583159713638,3494.9881947928397
1600.0,1400.0,1500,2050.0,-1018.5497412877941,-1018.290067317073,-1019.9583159713637
16.249461889266968
-10.0,978.2197861668886,3002.845564815445
-9.0,977.9646015814468,3039.5178576895137
-10.0,1099.6052178114287,3532.726773469716
1600.0,1400.0,1500,2050.0,-1018.2197861668886,-1017.9646015814468,-1019.6052178114286
16.28463053703308
-9.0,977.8954785068912,3037.2307645914157
-9.0,977.6447068187176,3073.9273383088025
-10.0,1099.258158036773,3571.4121427069804
1600.0,1400.0,1500,2050.0,-1017.8954785068912,-1017.6447068187176,-1019.258158036773
16.319939613342285
-9.0,977.5767232958168,3071.7494941470895
-9.0,977.3302893014542,3108.438764237431
-10.0,1098.9170350920717,3610.2254162550053
1600.0,1400.0,1500,2050.0,-1017.5767232958168,-1017.3302893014542,-1018.9170350920717
16.35460376739502
-9.0,977.263427058914,3105.6248051394896
-9.0,977.0212568187033,3142.299624336016
-10.0,1098.5817490646841,3648.3005371089143
1600.0,1400.0,1500,2050.0,-1017.263427058914,-1017.0212568187033,-1018.581749064684
16.398545503616333
-7.0,976.9554978363042,3148.5541588497163
-7.0,976.7175186539296,3185.2238767259146
-7.0,1098.2522016607695,3696.5638351584394
1600.0,1400.0,1500,2050.0,-1016.9554978363042,-1016.7175186539296,-1018.2522016607696
16.43290066719055
-9.0,976.6528451608407,3182.106761396076
-9.0,976.4189855631744,3218.76728111692
-9.0,1097.9282961816396,3734.2804619349754
1600.0,1400.0,1500,2050.0,-1016.6528451608407,-1016.4189855631744,-1017.9282961816396
16.46689772605896
-9.0,976.3553800361941,3215.3041627903767
-9.0,976.1255697534352,3251.9277778423498
-9.0,1097.6099375003455,3771.5454653085953
1600.0,1400.0,1500,2050.0,-1016.3553800361941,-1016.1255697534352,-1017.6099375003455
