time,e_d_x,e_p_x,e_i_x,e_d_y,e_p_y,e_i_y,e_d_z,e_p_z,e_i_z,roll,pitch,yaw,thrust,x,y,z
6.4914231300354,0,-40.0,0.0,0,-40.0,0.0,0,80.0,0.0,1453.358492406526,1546.4877304465494,1500,1727.3841495162562,0.0,0.0,0.0
6.498150587081909,507.0,-36.59183910320731,-0.2460827840767309,4551.0,-9.342829938183119,-0.06294035976727061,-932.0,73.71900850474825,0.4967851103274129,1400.0,1400.0,1500,2050.0,-3.40816089679269,-30.65717006181688,6.280991495251747
6.505201578140259,101.0,-35.87714604130636,-0.49902655867854095,913.0,-2.914005887852234,-0.0834508620630445,-187.0,72.40188141496216,1.0063061974315994,1600.0,1400.0,1500,2050.0,-4.122853958693643,-37.085994112147766,7.59811858503784
6.5120813846588135,47.0,-35.55133207669367,-0.7436976058238693,426.0,0.016763645665314186,-0.08333565132725894,-87.0,71.80143008571525,1.4996869863540045,1530.0341216790182,1400.0,1500,2050.0,-4.448667923306328,-40.016763645665314,8.198569914284754
6.519430160522461,31.0,-35.32366359991794,-1.0030980123134974,247.0,1.8378787465763438,-0.06975806829049895,33.0,72.0475929944345,2.031742398982563,1503.1194184616857,1400.0,1500,2050.0,-4.676336400082058,-41.837878746576344,7.952407005565504
6.5262291431427,17.0,-35.20797055422817,-1.242644276891842,164.0,2.9442866366395677,-0.04987679928307702,-60.0,71.64147020050633,2.515739910751273,1481.6610044495585,1400.0,1500,1723.047331732376,-4.792029445771833,-42.94428663663957,8.358529799493663
6.533451080322266,11.0,-35.127405603995044,-1.496348943497272,107.0,3.714649100312954,-0.02304717991240655,-39.0,71.35896663922648,3.0311749515356334,1473.3408757746565,1400.0,1500,1681.1728969540768,-4.872594396004954,-43.714649100312954,8.641033360773521
6.540250778198242,8.0,-35.069868485456006,-1.7347967311321775,81.0,4.264854224982024,0.005977960814663272,-30.0,71.15710845083528,3.5154459201466577,1469.6841623564974,1400.0,1500,1674.237248770633,-4.9301315145439935,-44.264854224982024,8.842891549164717
6.5472917556762695,6.0,-35.0283536107188,-1.9813637687152572,56.0,4.661949778300276,0.038820428134441844,-21.0,71.01115332535196,4.015704737451626,1466.271533089884,1411.1301507587075,1500,1674.5724518060117,-4.9716463892812,-44.661949778300276,8.988846674648048
6.554766416549683,4.0,-34.99832865253535,-2.2430395047953096,38.0,4.949281003338065,0.07577450518311027,-14.0,70.90518765309514,4.545189815901494,1463.8195155811566,1437.5044553950222,1500,1679.2411436598106,-5.00167134746465,-44.949281003338065,9.094812346904867
6.561554908752441,3.0,-34.97665954967164,-2.480461607255861,31.0,5.1568020231926255,0.11077649759907984,-11.0,70.8282622140604,5.025736733298401,1462.7723901653985,1449.0171077057976,1500,1682.580798808594,-5.023340450328365,-45.156802023192625,9.171737785939596
6.568735837936401,7.0,-34.92817960142274,-2.731228426336606,33.0,5.395877990700235,0.1495715150054377,68.0,71.31718289048243,5.539254647230119,1471.0297633617379,1449.9117296274715,1500,1854.0777329106409,-5.071820398577259,-45.395877990700235,8.682817109517575
6.576006174087524,0.0,-34.92595830716533,-2.985110248643039,11.0,5.478091047789896,0.18944870937931263,-26.0,71.13042704998703,6.057075115070386,1457.8680122820117,1476.4600321106464,1500,1649.4049390034133,-5.07404169283467,-45.478091047789896,8.86957295001297
6.582729816436768,0.0,-34.92464475955223,-3.2199976826540717,9.0,5.535481965950041,0.226635636067167,-20.0,70.99423468883384,6.53312855578986,1457.997624313071,1480.6332224508596,1500,1660.6094725338487,-5.075355240447772,-45.53548196595004,9.005765311166154
6.590023756027222,5.0,-34.891014419790935,-3.4743492167583065,18.0,5.664801976866428,0.2679894749233093,61.0,71.44060731550623,7.055506520229076,1467.9887647530495,1470.0443071092934,1500,1837.2731125704279,-5.108985580209062,-45.66480197686643,8.559392684493767
6.597227573394775,3.0,-34.86672799155557,-3.7255726346681195,13.0,5.756678344486318,0.30950894432730475,45.0,71.76740036615467,7.573635070397955,1465.7396410290512,1476.1945210673662,1500,1804.201500511412,-5.133272008444428,-45.75667834448632,8.232599633845323
6.603544473648071,3.0,-34.84928040938846,-3.9458865459476415,10.0,5.821191085817134,0.34601851843149595,38.0,72.00655076424088,8.024029667284557,1464.6484163085188,1479.3110771031863,1500,1790.01801419869,-5.150719590611536,-45.821191085817134,7.993449235759114
6.610975027084351,2.0,-34.83683406865084,-4.20462722256684,6.0,5.865732479379467,0.3898446989941814,23.0,72.1814918102127,8.564026493938242,1462.522235369853,1484.9544516578026,1500,1758.9536426178786,-5.163165931349162,-45.86573247937947,7.818508189787289
6.618101596832275,-3.0,-34.861015416739505,-4.452983565280099,-8.0,5.805660637557089,0.43126759066811193,-58.0,71.76392749429888,9.076312621292578,1450.4411108416373,1505.7377381518322,1500,1583.983655064384,-5.1389845832604975,-45.80566063755709,8.236072505701113
6.624757289886475,-3.0,-34.87898032710481,-4.685318615710154,-7.0,5.759263643117144,0.46941136487764734,-46.0,71.45889871265025,9.548394431392376,1452.2832086276103,1503.538726082353,1500,1609.7821321409206,-5.121019672895187,-45.759263643117144,8.541101287349745
6.63233494758606,3.0,-34.855644643342664,-4.949284865283655,52.0,6.153672596612218,0.5162383874935741,275.0,73.55334764506316,10.108632505985165,1472.8798146384718,1439.4275895923056,1500,2050.0,-5.144355356657335,-46.15367259661222,6.446652354936848
6.638803482055664,0.0,-34.853212355693785,-5.174867025236777,24.0,6.305851473342003,0.55679196626181,122.0,74.33467502281046,10.586367429327602,1465.0258804035761,1464.1614234389015,1500,1981.2882693763133,-5.1467876443062135,-46.305851473342,5.665324977189542
6.645775079727173,-3.0,-34.87408970639314,-5.418020091722602,-27.0,6.117631995850687,0.5994591379247654,-143.0,73.33793469696272,11.097650004094211,1444.9479817253348,1538.4025445953966,1500,1480.0,-5.125910293606856,-46.11763199585069,6.66206530303728
6.653110027313232,-2.0,-34.88960814786268,-5.673817082154132,-19.0,5.977693335281252,0.6435204093904376,-99.0,72.60908018898351,11.633003618148965,1449.7761571422645,1523.1342781763783,1500,1503.2986371372024,-5.110391852137318,-45.97769333528125,7.3909198110164915
6.65981912612915,-2.0,-34.90119910251819,-5.908047565575645,-16.0,5.87313994924429,0.6827670559132979,-80.0,72.07626970855219,12.114834817403501,1451.6865807552558,1517.3419130373832,1500,1542.75820503798,-5.098800897481806,-45.87313994924429,7.923730291447805
6.666903972625732,-1.0,-34.9099104860762,-6.155262398181349,-11.0,5.794531233646573,0.7239129823248541,-55.0,71.68692165948156,12.623768234307565,1454.0388135166936,1509.8026925832926,1500,1594.890878253877,-5.090089513923804,-45.79453123364657,8.313078340518441
6.673855304718018,4.0,-34.883602939537155,-6.397866343376141,4.0,5.824831418232179,0.7642713888316894,38.0,71.94692578125934,13.122282780953435,1466.0514592411391,1487.4626598710336,1500,1792.9436526347133,-5.116397060462843,-45.82483141823218,8.053074218740667
6.680927038192749,-2.0,-34.89750859007065,-6.6446605432716845,-10.0,5.75503779538947,0.8049777149052929,-50.0,71.59284534309222,13.628704854433137,1453.2384021096777,1507.9362185432917,1500,1606.1710406519117,-5.102491409929348,-45.75503779538947,8.40715465690778
6.687896251678467,-1.0,-34.90789932821781,-6.887924500644464,-8.0,5.702000727274076,0.8447392861388783,-37.0,71.3342666037967,14.126137713288347,1454.7292052140306,1504.4564161935248,1500,1633.561924972646,-5.09210067178219,-45.702000727274076,8.665733396203294
6.6950201988220215,4.0,-34.88282907900997,-7.136419614506439,7.0,5.751082236819386,0.8857000938582295,50.0,71.6895716198888,14.636713695246097,1466.1983406549903,1484.325297883022,1500,1820.7693687402193,-5.1171709209900245,-45.751082236819386,8.310428380111198
6.701998233795166,3.0,-34.86472594656797,-7.379731828685952,5.0,5.785016673282051,0.9260350403936881,37.0,71.94948254666745,15.138350848421497,1464.4598499874405,1486.8408248314265,1500,1794.9899255095988,-5.135274053432027,-45.78501667328205,8.05051745333254
6.709079742431641,2.0,-34.85171689694686,-7.626559490778115,3.0,5.807905644531807,0.9671679285131037,27.0,72.13957958558157,15.64929390136875,1462.9926759201778,1488.9282212160601,1500,1773.7253334341483,-5.148283103053136,-45.80790564453181,7.860420414418426
6.715883731842041,1.0,-34.84243131789144,-7.863618717414685,2.0,5.82274957779255,1.0067955727415832,20.0,72.27858346812039,16.141111082998922,1462.0698898292537,1490.3006318173384,1500,1760.937324708008,-5.157568682108562,-45.82274957779255,7.721416531879608
6.723051071166992,1.0,-34.835866271140105,-8.113274275105352,1.0,5.831743108889718,1.048628414356584,14.0,72.38019501533492,16.660419461360735,1461.1686012242717,1491.5270466006236,1500,1748.4068318559462,-5.164133728859891,-45.83174310888972,7.619804984665082
6.7300238609313965,1.0,-34.83128788429019,-8.356145522745951,1.0,5.836491242467169,1.0893097339446558,11.0,72.45444133577668,17.165421754473037,1460.6523755088176,1492.2981359486448,1500,1741.673975790654,-5.168712115709807,-45.83649124246717,7.545558664223317
6.737168550491333,-4.0,-34.861009625125504,-8.605208302751052,-12.0,5.748445173106333,1.1303805901588162,-68.0,71.96521632309208,17.679522252836726,1448.8096637428812,1511.9522435413276,1500,1573.1303133921983,-5.138990374874492,-45.74844517310633,8.034783676907926
6.744507312774658,1.0,-34.8500972734936,-8.86072392378245,3.0,5.772052930155496,1.172882059459783,25.0,72.15102823453412,18.21199746874186,1462.4761824656089,1488.997352174342,1500,1773.100489919365,-5.1499027265064,-45.772052930155496,7.848971765465878
6.750920057296753,-4.0,-34.87516656510475,-9.084702052636302,-12.0,5.697900558138542,1.2092405614992203,-64.0,71.74359934035746,18.66863273599721,1449.507290453047,1510.8464142561502,1500,1583.0418297774754,-5.124833434895252,-45.69790055813854,8.256400659642535
6.758850574493408,-2.0,-34.893688164411266,-9.36136881155403,-7.0,5.642029423837684,1.254023782643516,-38.0,71.44589120624047,19.235763659702446,1453.575483032052,1503.6561480346143,1500,1638.8383233342493,-5.106311835588737,-45.642029423837684,8.554108793759523
6.765737771987915,3.0,-34.8745786292468,-9.601465459889042,7.0,5.6892500350154265,1.2932949387194148,47.0,71.77167894242079,19.73111320089574,1465.1650692982798,1484.4572370773874,1500,1821.0090657576736,-5.125421370753204,-45.68925003501543,8.228321057579207
6.772767066955566,2.0,-34.86079444515291,-9.84657044707823,5.0,5.722174656123151,1.3334373001414213,34.0,72.01001451269202,20.23631422758586,1463.5297015873402,1487.1345902383823,1500,1793.8101977908834,-5.1392055548470905,-45.72217465612315,7.9899854873079725
6.779715299606323,1.0,-34.850904578566585,-10.088739258385738,3.0,5.74466487458286,1.3733539378254906,25.0,72.18433960544037,20.73791944316875,1462.4218219397371,1488.9992769566427,1500,1775.790062006519,-5.149095421433418,-45.74466487458286,7.815660394559634
6.786677122116089,-4.0,-34.87668880717465,-10.331544575589618,-11.0,5.669887704967103,1.4127874872872357,-60.0,71.76875325252867,21.237167211964007,1450.1724167158216,1509.4544807398884,1500,1594.934749762352,-5.123311192825346,-45.6698877049671,8.23124674747133
6.793812990188599,-3.0,-34.89571796060035,-10.580455977802057,-8.0,5.6137013162707845,1.4530468808823174,-42.0,71.46503943934314,21.749534746835224,1452.8354216964804,1504.9057133193674,1500,1631.3855463998996,-5.1042820393996475,-45.613701316270785,8.534960560656854
6.8008246421813965,-2.0,-34.909799628148164,-10.825297929091528,-6.0,5.571149255932987,1.4919929533017726,-32.0,71.24320757120468,22.247589568899354,1454.443644509908,1502.2866422567452,1500,1653.8444954147103,-5.090200371851833,-45.57114925593299,8.756792428795327
6.807973384857178,-1.0,-34.92025699826424,-11.074942186182325,-5.0,5.5386028646446945,1.5315421027664058,-23.0,71.08130532048298,22.75512143395678,1455.7597518892533,1500.0470279439498,1500,1673.1844358250485,-5.079743001735754,-45.538602864644695,8.91869467951701
6.814926385879517,-1.0,-34.928058694883596,-11.317830323988662,-4.0,5.513405401206185,1.5698452681987987,-17.0,70.96326403073878,23.24817378313886,1456.569555230463,1498.715211048243,1500,1685.490966075103,-5.071941305116403,-45.513405401206185,9.03673596926122
6.822227716445923,-1.0,-34.93391380921637,-11.572911034476281,-3.0,5.493611563801878,1.6099611813458008,-12.0,70.87732169588163,23.76567253850201,1457.3171865085585,1497.4162017607932,1500,1696.927492078121,-5.0660861907836265,-45.49361156380188,9.12267830411837
6.832502365112305,-0.0,-34.93834145787338,-11.931865228092834,-2.0,5.477796832549252,1.6662684334282747,-6.0,70.81486866960375,24.493709407527714,1458.1602742118762,1495.763998550813,1500,1709.6856696154578,-5.061658542126626,-45.47779683254925,9.185131330396247
6.839749574661255,4.0,-34.90890528813175,-12.184807442250799,11.0,5.554547338996393,1.7065366450163864,69.0,71.31248452153915,25.010610937417734,1467.7237511325793,1480.083775903852,1500,1871.7547580800572,-5.091094711868252,-45.55454733899639,8.687515478460845
6.846450090408325,4.0,-34.88376294356053,-12.418579912919974,59.0,5.948587731103665,1.7463839047507996,318.0,73.44077207514181,25.50257941967254,1474.6715144039986,1435.2194054343634,1500,2050.0,-5.116237056439471,-45.948587731103665,6.559227924858187
6.853395938873291,-3.0,-34.90211550562892,-12.661029682267166,-20.0,5.80644514433547,1.7866716775470612,-108.0,72.6895981037173,26.00689844490728,1448.6245962348244,1525.8664391329783,1500,1499.6358132108426,-5.0978844943710815,-45.80644514433547,7.310401896282705
6.860406398773193,3.0,-34.88286687014245,-12.905557988206823,-2.0,5.790785249743081,1.827276029114078,-1.0,72.68302128643181,26.516578482900837,1463.171839589999,1496.4315806033758,1500,1726.995729751103,-5.117133129857549,-45.79078524974308,7.316978713568187
6.867713689804077,2.0,-34.86894155073467,-13.16033886524992,-2.0,5.778012746642908,1.8695128032754338,-1.0,72.6780569778728,27.047883458185304,1462.0126829143526,1495.7556742417678,1500,1728.3680671673171,-5.131058449265335,-45.77801274664291,7.321943022127197
6.87489652633667,-3.0,-34.89172460895925,-13.410902187608492,-14.0,5.677752763530165,1.9103046490205724,-76.0,72.13143025586422,27.565802558371082,1450.0622241997949,1514.6334153267524,1500,1567.8593665291069,-5.108275391040752,-45.677752763530165,7.868569744135786
6.881590127944946,-3.0,-34.90852658102282,-13.644624217162926,-11.0,5.603192568089675,1.9477874774172408,-60.0,71.73173188427909,28.045740968145033,1452.133365855908,1510.0933212381256,1500,1601.9217659054766,-5.0914734189771815,-45.603192568089675,8.26826811572091
6.888559103012085,-2.0,-34.920947911934505,-13.888029061495956,-8.0,5.547465981957124,1.9864582104829562,-42.0,71.43958714064645,28.54360166973488,1454.3136702578354,1505.1932815390405,1500,1639.4314119113621,-5.079052088065495,-45.547465981957124,8.560412859353551
6.895510911941528,-1.0,-34.92750105219849,-14.130813393098254,17.0,5.662120656344278,2.0258026420094155,81.0,72.0046037222569,29.044249753028836,1461.778752397112,1472.6948455064173,1500,1907.4784234897177,-5.072498947801511,-45.66212065634428,7.995396277743093
6.928175687789917,-1.0,-34.97300174563791,-15.272990200530245,-9.0,5.3625668796376615,2.2011052118758054,-48.0,70.44378911684863,31.348555380522875,1454.4740450472748,1507.2261857185147,1500,1627.3581325417679,-5.026998254362093,-45.36256687963766,9.556210883151362
6.963922500610352,-1.0,-34.99857839972363,-16.524127897434465,2.0,5.437054118585706,2.3954625677474617,6.0,70.66661330112689,33.874358310648695,1458.486795009526,1490.7767592295963,1500,1746.2723506030748,-5.001421600276375,-45.437054118585706,9.333386698873115
7.001032590866089,-1.0,-35.01860931592144,-17.823613206169185,5.0,5.615312219448327,2.6039022016105173,21.0,71.45062147248294,36.52589732232106,1459.5475522361583,1487.008874835486,1500,1783.4176229529817,-4.981390684078561,-45.61531221944833,8.549378527517058
7.044480323791504,-0.0,-35.031451513691536,-19.345867511396918,0.0,5.615378139631851,2.8476995895029926,-5.0,71.21707482439498,39.61731615584575,1458.5871247440218,1493.437320464463,1500,1728.9250141546902,-4.968548486308465,-45.61537813963185,8.782925175605014
7.08036208152771,-0.0,-35.04293347866111,-20.60310246311607,5.0,5.810997885846184,3.056340025585146,17.0,71.83666655581244,42.19872713208687,1459.7545225847282,1485.8804795749363,1500,1782.3835734294905,-4.957066521338887,-45.810997885846184,8.16333344418756
7.115851402282715,-1.0,-35.07966393377119,-21.848030817508562,0.0,5.825332165277544,3.263659042751119,-5.0,71.66776448260197,44.74898509730764,1457.640412126956,1492.6511302989222,1500,1737.410418309435,-4.920336066228814,-45.825332165277544,8.33223551739803
7.15161395072937,-2.0,-35.147133438923824,-23.105149474471414,-5.0,5.653167994420031,3.465159522528882,-29.0,70.64125369490333,47.265241569066944,1454.9991485058515,1500.2753392370457,1500,1685.9616456246083,-4.8528665610761745,-45.65316799442003,9.358746305096679
7.1875529289245605,-2.0,-35.21359721372298,-24.370664990182185,-5.0,5.482239782407191,3.6621999962756306,-22.0,69.84543347763659,49.77539842740434,1455.3486059499817,1500.3633515026895,1500,1700.8891746844797,-4.78640278627702,-45.48223978240719,10.154566522363405
7.223612070083618,-2.0,-35.27484965391442,-25.642704644473948,-12.0,5.033272751331516,3.8436702883674423,-60.0,67.68198552009457,52.21577519412772,1453.146482507918,1512.6642382946134,1500,1616.9724099590037,-4.725150346085575,-45.033272751331516,12.31801447990543
7.259371519088745,1.0,-35.25188679393054,-26.903082574997015,9.0,5.373396888894412,4.036059569400944,50.0,69.47946984530378,54.7047787908165,1462.395639621031,1481.5644588756697,1500,1860.6151440975432,-4.748113206069463,-45.37339688889441,10.520530154696221
7.294781446456909,-1.0,-35.27970145767823,-28.152359475192792,-6.0,5.161178403111123,4.218777145122963,-27.0,68.5348194984802,57.13105255229655,1456.6112897596329,1502.5350410001581,1500,1695.3941612550916,-4.720298542321768,-45.16117840311112,11.465180501519795
7.3406291007995605,-1.0,-35.324808032396625,-29.771910641492088,-9.0,4.740085289383231,4.436074074288502,-37.0,66.85917492872623,60.196133846551874,1455.658995297662,1507.7682282249805,1500,1673.312269207125,-4.675191967603376,-44.74008528938323,13.140825071273765
7.386052131652832,0.0,-35.312663007473894,-31.37587672681706,-9.0,4.30986318828311,4.631787690187476,-34.0,65.2944287506265,63.16060363179498,1457.5727333715704,1508.6888116598889,1500,1676.4592054734885,-4.687336992526103,-44.30986318828311,14.705571249373508
7.421268701553345,1.0,-35.2770113028744,-32.618405507228836,-6.0,4.111356168349559,4.776485371496046,-16.0,64.72820008069907,65.43791741289157,1459.6593052324815,1503.2127798731426,1500,1716.4254093093712,-4.722988697125599,-44.11135616834956,15.271799919300932
7.456171274185181,3.0,-35.186689143861074,-33.846528259067135,2.0,4.175589672168073,4.92224908176355,28.0,65.70573642250665,67.73157695647765,1464.091504727351,1492.814144918893,1500,1815.8245007503087,-4.813310856138923,-44.17558967216807,14.294263577493348
7.499769926071167,3.0,-35.076936115214586,-35.37576848203521,-15.0,3.5184701903368705,5.075651316500593,-55.0,63.31175440339626,70.49214070687732,1460.104345767468,1518.3072953333228,1500,1635.2337999646436,-4.923063884785411,-43.51847019033687,16.688245596603743
7.534581184387207,4.0,-34.940830109832184,-36.59210274476545,-14.0,3.04208356521314,5.181599392976604,-38.0,62.0022777284738,72.65140496276351,1463.15619934868,1516.4338960460325,1500,1670.6191162657503,-5.059169890167813,-43.04208356521314,17.9977222715262
7.5778419971466064,5.0,-34.74035959380072,-38.09484984689797,-13.0,2.486358265092754,5.289190319241798,-33.0,60.58035255020222,75.27373459082804,1464.633824839381,1515.781357365467,1500,1679.5773332596468,-5.259640406199278,-42.486358265092754,19.419647449797775
7.612990856170654,7.0,-34.496399657063655,-39.30756454984608,-13.0,2.0282832337548697,5.360411557946523,-28.0,59.612006701226775,77.36583077327467,1468.4877855629024,1516.522562750653,1500,1689.9890800115804,-5.5036003429363465,-42.02828323375487,20.387993298773225
7.655191421508789,7.0,-34.2080022198642,-40.751006621970134,-16.0,1.3575923967775196,5.417750952201573,-42.0,57.84897633094225,79.81057972316985,1468.0389730919026,1521.86506958169,1500,1658.0750005545603,-5.791997780135803,-41.35759239677752,22.151023669057754
7.689885377883911,12.0,-33.80075843379795,-41.92383371763673,-9.0,1.0505543458600428,5.454162269982073,12.0,58.28053711089659,81.82925508645633,1477.4277417865721,1511.0164918762018,1500,1775.863388754569,-6.1992415662020495,-41.05055434586004,21.719462889103408
7.724768161773682,12.0,-33.38370431158002,-43.08831842339619,-14.0,0.56351357975241,5.473820535924597,-13.0,57.82029143877275,83.8462429588855,1477.4974866745215,1519.2280206774292,1500,1722.276295628988,-6.616295688419982,-40.56351357975241,22.17970856122725
7.759920597076416,11.0,-32.99407195149593,-44.248164002244174,-25.0,-0.3247801150060141,5.462404653147596,-71.0,55.312112891861354,85.79059842877419,1474.7853957211562,1539.3622403987433,1500,1595.611793836032,-7.005928048504068,-39.675219884993986,24.687887108138646
7.803497314453125,13.0,-32.41159947300733,-45.66052420209653,-8.0,-0.6925383824355009,5.432220655021116,9.0,55.70056484966888,88.21833756278374,1481.115964893138,1512.456806971412,1500,1767.9711407619664,-7.588400526992674,-39.3074616175645,24.299435150331117
7.8408496379852295,15.0,-31.84447351528639,-46.850004464177296,-15.0,-1.2647759194522052,5.38498225578113,-21.0,54.9338747923471,90.26978702292658,1483.687782062689,1523.5345170096527,1500,1705.606936764104,-8.155526484713613,-38.735224080547795,25.066125207652906
7.885439872741699,10.0,-31.408641963052943,-48.25053815949931,-16.0,-1.9613054299601274,5.297535135628184,-37.0,53.268525741421506,92.64496688963031,1475.8241617118895,1525.3415148715123,1500,1668.5494841480522,-8.591358036947055,-38.03869457003987,26.731474258578494
7.921229124069214,22.0,-30.62640704552144,-49.346575923274635,-6.0,-2.1670098051480124,5.219974310528567,41.0,54.72573671469029,94.60374270184919,1495.118634656106,1509.9780712181262,1500,1839.7015159509033,-9.373592954478562,-37.83299019485199,25.274263285309708
7.964522838592529,14.0,-30.00460738203534,-50.64563690524764,-12.0,-2.6913562516528415,5.103457426296969,-16.0,54.03907282778388,96.94323047436511,1484.7355574793087,1520.4040340280005,1500,1720.1424940885877,-9.995392617964663,-37.30864374834716,25.960927172216117
8.010135173797607,13.0,-29.39200653017061,-51.986302989853364,-13.0,-3.2904510006536114,4.953380901830446,-26.0,52.831513033892286,99.35270944793027,1483.8732817229984,1522.8802416676829,1500,1697.0308043205912,-10.607993469829388,-36.70954899934639,27.168486966107714
8.045308589935303,19.0,-28.72050907067609,-52.99651510208864,-14.0,-3.7938557083041786,4.8199163276193975,-21.0,52.10317525314995,101.18580331834495,1492.9263761647462,1525.0046339103374,1500,1709.2312010576954,-11.27949092932391,-36.20614429169582,27.89682474685005
8.081379413604736,23.0,-27.902806130909056,-54.002959039182095,-7.0,-4.042531703468214,4.674124902361448,19.0,52.803193648309005,103.09008032774402,1499.082591056032,1513.8822019995268,1500,1798.2306547730066,-12.097193869090944,-35.957468296531786,27.19680635169099
8.124334335327148,16.0,-27.225916355138644,-55.172439653873724,-14.0,-4.6368588462793525,4.4749346219087744,-34.0,51.34038205467908,105.29558602761558,1489.6787607370302,1525.7073285189472,1500,1683.199708266655,-12.774083644861358,-35.36314115372065,28.659617945320917
8.159408569335938,25.0,-26.36152095957405,-56.09705609391379,-7.0,-4.867598662515611,4.304178314209914,17.0,51.92604896600551,107.11719906397586,1503.4817634863846,1514.402581195044,1500,1794.5230132490328,-13.63847904042595,-35.13240133748439,28.073951033994494
8.194607734680176,23.0,-25.56543466738124,-56.99694415114288,-11.0,-5.2431784506933,4.119586556931084,-18.0,51.29142499872046,108.9229690492788,1501.640005676598,1521.3209515472736,1500,1720.7445613193024,-14.434565332618758,-34.7568215493067,28.70857500127954
8.22975206375122,24.0,-24.730961180006993,-57.86612077437878,-5.0,-5.428548013717332,3.9288893007615,7.0,51.52026267657713,110.73276656085137,1504.0820219648608,1513.3918530779931,1500,1775.44674420768,-15.269038819993009,-34.57145198628267,28.47973732342287
8.265536069869995,22.0,-23.951879534976527,-58.72319213592218,-10.0,-5.794548669021765,3.7214791115551606,-21.0,50.76044667516955,112.54968698907734,1502.2893310953286,1521.389773653374,1500,1716.4284700868607,-16.048120465023473,-34.205451330978235,29.239553324830453
8.299835920333862,21.0,-23.24522959679647,-59.52046124042828,-13.0,-6.252081803451702,3.506650553206681,-47.0,49.136788234123976,114.23830485179465,1501.4729433580085,1527.2873039362428,1500,1658.6375471352114,-16.75477040320353,-33.7479181965483,30.863211765876024
8.334860563278198,23.0,-22.434747421533654,-60.30626770043808,-7.0,-6.490959491259396,3.2797449756500843,-16.0,48.58376486274942,115.93644730407604,1505.9668602977579,1517.2481931696284,1500,1725.5643790773145,-17.565252578466346,-33.509040508740604,31.416235137250577
8.375770807266235,19.0,-21.66321992794014,-61.192515313256614,-4.0,-6.665032918639945,3.007078441827903,-10.0,48.15973566629643,117.9067197692866,1500.729758632871,1513.6742566468727,1500,1737.9410781580914,-18.33678007205986,-33.334967081360055,31.840264333703573
8.410986185073853,18.0,-21.0209483448108,-61.932770939308895,-9.0,-6.9924999956632234,2.7608515840799943,-47.0,46.51641118172119,119.54455768464223,1500.6071522661614,1522.2341777963818,1500,1657.9971812987321,-18.9790516551892,-33.00750000433678,33.48358881827881
8.446244955062866,25.0,-20.128354241365237,-62.64247195176258,8.0,-6.726319192801576,2.52369144646778,55.0,48.43845206563164,121.25261115405193,1510.7417098955125,1497.245433532134,1500,1881.703933671105,-19.871645758634763,-33.273680807198424,31.56154793436836
8.481619834899902,30.0,-19.07268928303321,-63.31709783406683,15.0,-6.191177396408364,2.304493302463615,97.0,51.87614361197437,123.0902218844971,1516.8635542615245,1487.4631114900299,1500,1985.4503564244628,-20.92731071696679,-33.808822603591636,28.123856388025626
8.516068458557129,16.0,-18.518335906740973,-63.95509083009093,-5.0,-6.377735449811873,2.0849624392188097,-36.0,50.62116098440177,124.83169774841213,1500.3979743636844,1515.3792915089537,1500,1696.171857942519,-21.481664093259027,-33.62226455018813,29.37883901559823
8.559139966964722,11.0,-18.03271782525936,-64.73179578618326,-5.0,-6.607181321695904,1.8003780228213295,-39.0,48.92721113120707,126.9391131946346,1493.9315163956035,1515.5967097822338,1500,1687.9014618648605,-21.96728217474064,-33.392818678304096,31.072788868792923
8.593475341796875,15.0,-17.53111540040584,-65.33372902493831,-2.0,-6.66905275413481,1.5714126770456855,-21.0,48.216271954923,128.59426910425435,1499.400593262349,1510.2870022880957,1500,1727.3897584769918,-22.46888459959416,-33.33094724586519,31.783728045076995
8.628675699234009,16.0,-16.961303772956146,-65.93076489256627,1.0,-6.6362231712431665,1.3378263247776303,-13.0,47.76217107194589,130.27554876012726,1502.2815401628957,1506.2889408404753,1500,1744.6444615330347,-23.038696227043854,-33.36377682875683,32.23782892805411
8.664414167404175,13.0,-16.483758831167915,-66.51987704294739,1.0,-6.587568700813215,1.1023951398460659,-11.0,47.36357011310757,131.96817115655438,1498.8330297411576,1505.6169335100935,1500,1749.1536465687911,-23.516241168832085,-33.412431299186785,32.63642988689243
8.708708763122559,11.0,-16.01512351892854,-67.22924900968933,3.0,-6.4650089950211935,0.8160070594220104,-8.0,47.028509281233,134.05142572451953,1495.463869049305,1503.483510900666,1500,1758.2588788483788,-23.98487648107146,-33.53499100497881,32.971490718767
8.743621349334717,17.0,-15.412402873832733,-67.76732850455214,9.0,-6.136554939461767,0.6017860020830448,30.0,48.06699286867951,135.72958021707063,1505.2546660271134,1494.0906021639416,1500,1843.2108150350157,-24.587597126167267,-33.86344506053823,31.933007131320487
8.788742065429688,8.0,-15.031511749977717,-68.4455610787011,2.0,-6.038996649503758,0.32927623220029967,-10.0,47.62242303356491,137.8784402331566,1493.5726662769919,1503.850856189604,1500,1759.2145210880433,-24.968488250022283,-33.96100335049624,32.37757696643509
8.823652505874634,25.0,-14.141885371391314,-68.93927738417939,24.0,-5.190379658471407,0.14808892959306147,110.0,51.469350754536265,139.67530702241078,1515.983182853103,1475.6398806859997,1500,2032.1474726146546,-25.858114628608686,-34.80962034152859,28.53064924546374
8.858561754226685,5.0,-13.95844244329432,-69.42651951056801,-1.0,-5.235550573619605,-0.03505592965224885,-35.0,50.260741559994216,141.4339819333303,1490.0808520694904,1507.966475191557,1500,1717.4425517788131,-26.04155755670568,-34.764449426380395,29.739258440005784
8.901203393936157,8.0,-13.62261261267058,-70.00745876775837,4.0,-5.052834377956387,-0.2501255485910334,2.0,50.33895840700899,143.57589699004143,1494.48121031048,1499.7573887819078,1500,1797.88445315785,-26.37738738732942,-34.94716562204361,29.661041592991012
8.944091081619263,8.0,-13.28663696999861,-70.57726022667539,5.0,-4.830050538717245,-0.45730173378624184,4.0,50.52657796394837,145.74332285150248,1494.8151660536364,1498.2851993191832,1500,1806.225016973911,-26.71336303000139,-35.169949461282755,29.47342203605163
8.978938579559326,8.0,-13.018003376385181,-71.03093300612252,4.0,-4.704043396407798,-0.6212236332898465,-8.0,50.26261520412672,147.4947054287949,1494.8648653253697,1500.3043279104731,1500,1781.7378951550093,-26.98199662361482,-35.2959566035922,29.737384795873282
9.022151470184326,2.0,-12.92688320202447,-71.58952866801725,-1.0,-4.7535488899603635,-0.8266336882148058,-30.0,48.98089320408143,149.6113931552224,1486.858651579512,1507.140502252133,1500,1733.6436030071807,-27.07311679797553,-35.24645111003964,31.019106795918567
9.056787967681885,8.0,-12.642171039496464,-72.02737000992055,6.0,-4.5403107479852025,-0.9840467817911809,8.0,49.25367260825598,151.32004526512947,1496.0570568550133,1496.685785499239,1500,1816.4161359941763,-27.357828960503536,-35.4596892520148,30.746327391744014
9.091619491577148,7.0,-12.415693739465318,-72.45980682215858,5.0,-4.367759489624817,-1.1361720872726986,1.0,49.2764237726941,153.0361832289424,1493.924313375984,1498.1061825420602,1500,1802.9018813855246,-27.58430626053468,-35.63224051037518,30.723576227305895
9.13224983215332,2.0,-12.331538438863308,-72.96089434997947,-1.0,-4.389176091791953,-1.3143729061678382,-22.0,48.37304163684913,154.99901298621765,1487.6152408846065,1505.781526208187,1500,1753.7386771335634,-27.66846156113669,-35.61082390820805,31.62695836315087
9.166759252548218,3.0,-12.241020315668074,-73.38334237703536,-2.0,-4.469763498657407,-1.4686154597608008,-30.0,47.35447933081718,156.63331281309075,1488.3773800347205,1508.4959917210688,1500,1737.2486361171327,-27.758979684331926,-35.53023650134259,32.64552066918282
9.201960802078247,5.0,-12.06506604866145,-73.8079852368046,1.0,-4.4208143849291375,-1.6243719968518862,-7.0,47.12044849249825,158.29445224289788,1492.1707243089377,1503.0711495965547,1500,1787.26865360871,-27.93493395133855,-35.57918561507086,32.87955150750175
9.23695421218872,4.0,-11.935876086587498,-74.22572769562653,-2.0,-4.492208106355207,-1.7814368702108236,-20.0,46.42452237412366,159.9167023520372,1490.3515282360365,1508.0112769751543,1500,1758.8573907682146,-28.0641239134125,-35.50779189364479,33.57547762587634
9.27715802192688,5.0,-11.731224395962968,-74.69735082758636,1.0,-4.437499390291329,-1.9598306715882996,-0.0,46.42114107404317,161.78289839898133,1492.7221581612403,1503.1066191906127,1500,1803.289415416301,-28.26877560403703,-35.56250060970867,33.57885892595683
9.312355279922485,2.0,-11.667492499414426,-75.10797840853925,-4.0,-4.5707451180481655,-2.120858752317189,-23.0,45.61055107381019,163.39062447785102,1487.9752943095643,1510.572766738681,1500,1754.1213924661536,-28.332507500585574,-35.429254881951834,34.38944892618981
9.357032537460327,8.0,-11.306934309244514,-75.61313044150398,5.0,-4.3528972970468445,-2.3153228499656526,28.0,46.86896904561564,165.48440033864105,1497.3478906162236,1498.2781342601288,1500,1869.172083979096,-28.693065690755486,-35.647102702953156,33.13103095438436
9.399113655090332,3.0,-11.186783600195866,-76.08392547227804,-3.0,-4.496062602138572,-2.5044021313741105,-14.0,46.26583920193273,167.42925583148315,1490.115222507019,1509.8247734476236,1500,1778.768449266408,-28.813216399804134,-35.50393739786143,33.73416079806727
9.441001653671265,1.0,-11.124212768552134,-76.54990708981715,-5.0,-4.706270298881648,-2.7015383749751503,-23.0,45.289025803972216,169.32633327783694,1488.1609222773106,1512.43786025224,1500,1759.1923193911061,-28.875787231447866,-35.29372970111835,34.710974196027784
9.476974248886108,4.0,-10.985611582780237,-76.94509590599372,-6.0,-4.919520867170611,-2.8867530040663603,-19.0,44.582630006125754,171.00540559389884,1491.663131858518,1513.5147082706394,1500,1768.8324977801992,-29.014388417219763,-35.08047913282939,35.417369993874246
9.513177633285522,25.0,-10.091018802828998,-77.31035516798968,20.0,-4.219704883788076,-3.0326230817980173,133.0,49.17032797187113,172.7057503256341,1518.2293019050667,1480.412412902721,1500,2050.0,-29.908981197171002,-35.780295116211924,30.829672028128872
9.555720806121826,3.0,-9.95253517862194,-77.7338197953777,-6.0,-4.4902424309367035,-3.2234702468868273,-22.0,48.25506161367842,174.7555559233175,1492.024751079867,1513.9464526174147,1500,1776.8931544342224,-30.04746482137806,-35.5097575690633,31.744938386321575
9.601795434951782,4.0,-9.76436465435102,-78.18367435249806,-4.0,-4.681551781587771,-3.4392993669979353,-10.0,47.78820811964698,176.9594876902643,1493.4749694989657,1510.9365007224696,1500,1802.3646358396982,-30.23563534564898,-35.31844821841223,32.21179188035302
9.63640308380127,5.0,-9.59406821013307,-78.51576196865925,-8.0,-4.944061346481909,-3.610263791505802,-20.0,47.091124562032164,178.58704513242535,1494.7381454458555,1516.1284639840185,1500,1781.0087732022973,-30.40593178986693,-35.05593865351809,32.908875437967836
9.681409358978271,11.0,-9.110355468280893,-78.92576992927896,-2.0,-5.018860381461877,-3.836152379035754,17.0,47.86954074199328,180.74161181151084,1503.1897295033546,1507.6493269249552,1500,1865.442128329663,-30.889644531719107,-34.98113961853812,32.13045925800672
9.717073678970337,8.0,-8.821367860306289,-79.2403864281286,-10.0,-5.370399025112157,-4.027682727949525,-20.0,47.145682187182146,182.4229518244328,1500.0016427972487,1519.7026313187048,1500,1785.3747151645007,-31.17863213969371,-34.62960097488784,32.854317812817854
9.752778053283691,5.0,-8.627844095801596,-79.54838677728412,-10.0,-5.721516978545814,-4.232205996198644,-28.0,46.139911399404966,184.07235060322722,1496.4763967980796,1520.2535009050978,1500,1767.7043654038732,-31.372155904198404,-34.278483021454186,33.860088600595034
9.788610458374023,5.0,-8.4408349275278,-79.85087841784159,-13.0,-6.174534870253176,-4.45319386499596,-35.0,44.8695091655347,185.6786246526796,1496.3651376677824,1524.964836722025,1500,1750.7933548274482,-31.5591650724722,-33.825465129746824,35.1304908344653
9.82414436340332,21.0,-7.707505952292493,-80.12476171520093,2.0,-6.0879935133325205,-4.669506630428537,59.0,46.94984081513528,187.34638734534275,1516.8895607409072,1503.23610713968,1500,1959.6412834617306,-32.29249404770751,-33.91200648666748,33.05015918486472
9.860325574874878,7.0,-7.4428277485975585,-80.39402562229307,-16.0,-6.67837419079838,-4.911294339663563,-47.0,45.23746325734055,188.98505338029813,1500.4606210715617,1531.0439144650088,1500,1730.9297865062572,-32.55717225140244,-33.32162580920162,34.76253674265945
9.895840644836426,9.0,-7.1171795584035635,-80.64682668959543,-13.0,-7.128364522267873,-5.164293849532872,-31.0,44.15490871988049,190.55130207482173,1503.4055218567905,1525.8889210828302,1500,1765.0418189170655,-32.88282044159644,-32.87163547773213,35.84509128011951
9.932668209075928,8.0,-6.828468632911068,-80.89825859991909,-19.0,-7.834755778389919,-5.453099674206679,-55.0,42.11864429060537,192.10439735911052,1501.9379372568364,1536.9173423513487,1500,1709.8662078925927,-33.17153136708893,-32.16524422161008,37.88135570939463
9.967889308929443,11.0,-6.437034625849684,-81.12500873340966,-13.0,-8.295661961560356,-5.744999181394733,-26.0,41.21524844563565,193.55410792335027,1506.864989219857,1527.716768828942,1500,1771.1700652626537,-33.562965374150316,-31.704338038439644,38.78475155436435
10.013787984848022,8.0,-6.058333035703498,-81.40305364289661,-12.0,-8.832287605199497,-6.150690614554398,-26.0,40.012509457870365,195.39206008649384,1503.310354747364,1526.398536100979,1500,1768.5761778259023,-33.9416669642965,-31.167712394800503,39.987490542129635
10.04900050163269,15.0,-5.545389233071987,-81.59834851894392,-14.0,-9.326127590493154,-6.478780192822359,-25.0,39.13113308084855,196.76867828360392,1512.6806490166773,1530.205285761883,1500,1771.128084767013,-34.45461076692801,-30.673872409506846,40.86886691915145
10.083841323852539,10.0,-5.182689553143746,-81.77889173564661,-19.0,-10.005007060987776,-6.827734984355076,-54.0,37.252815684691804,198.0687197535116,1507.5847289357896,1539.992747674318,1500,1707.0439221573492,-34.817310446856254,-29.994992939012224,42.747184315308196
10.118616104125977,14.0,-4.696955952704435,-81.94224638416252,-18.0,-10.615478667334354,-7.196685979249104,-40.0,35.84815174166667,199.31381855836082,1513.0928875455804,1537.3949996094775,1500,1733.2261326315454,-35.303044047295565,-29.384521332665646,44.15184825833333
10.153234958648682,8.0,-4.410034558184101,-82.09491883184074,-19.0,-11.259090561480598,-7.586258784850565,-54.0,33.96953859633092,200.4893434319905,1505.4397121761824,1540.4041287116122,1500,1699.8403612128307,-35.5899654418159,-28.740909438519402,46.03046140366908
10.196094751358032,14.0,-3.788964237612504,-82.25729588981804,-10.0,-11.703703974301469,-8.088248231723474,-11.0,33.48221414435951,201.92583705597755,1514.3978387392876,1527.5081489145489,1500,1790.7273492842935,-36.211035762387496,-28.29629602569853,46.51778585564049
10.231055736541748,11.0,-3.3909407010677697,-82.37584247511062,-19.0,-12.352782166855317,-8.520104830638255,-55.0,31.57159097380245,203.02974647080848,1511.1688509558282,1541.759285186726,1500,1695.916349044632,-36.60905929893223,-27.647217833144683,48.42840902619755
10.2654447555542,12.0,-2.977323652537592,-82.47824959058364,-18.0,-12.987067422303184,-8.96628075263905,-55.0,29.693171356755784,204.04935759214274,1512.619930586393,1542.464360353007,1500,1692.0678401748432,-37.02267634746241,-27.012932577696816,50.306828643244216
10.300552368164062,15.0,-2.441886789042705,-82.56397374848108,-15.0,-13.502464845329516,-9.44041663486166,-41.0,28.26711254454206,205.04194387169537,1517.675294545363,1536.9720764695212,1500,1718.9460044976695,-37.558113210957295,-26.497535154670484,51.73288745545794
10.335571527481079,13.0,-1.9985953750661238,-82.63396526084212,-18.0,-14.12845041259487,-9.935132563486803,-58.0,26.229550459565075,205.9604056347068,1514.8333088975942,1543.3535578623241,1500,1677.630775200398,-38.001404624933876,-25.87154958740513,53.770449540434925
10.370492935180664,19.0,-1.3396212267168792,-82.68073873509859,-9.0,-14.453529954578112,-10.440328492408733,-14.0,25.731123100279596,206.86024257406618,1523.4494832685536,1529.4995851768358,1500,1770.2031754470095,-38.66037877328312,-25.546470045421888,54.268876899720404
10.405353307723999,20.0,-0.6257552286644952,-82.7025526462991,-8.0,-14.743956417574488,-10.954304790654934,-15.0,25.21981934672595,207.73941487196865,1526.511378209187,1528.50356702827,1500,1769.1523794996713,-39.374244771335505,-25.256043582425512,54.78018065327405
10.439379930496216,9.0,-0.33001708854522604,-82.71378398033454,-16.0,-15.295921172056545,-11.474281008038162,-72.0,22.763628597694016,208.51284454807228,1511.2361565426918,1543.3267418700116,1500,1640.4032535957056,-39.669982911454774,-24.704078827943455,57.236371402305984
10.474232912063599,14.0,0.15331834612807427,-82.70844045195088,-12.0,-15.701120382701305,-12.021545558273017,-48.0,21.084640107925253,209.24772722898845,1519.0629699786127,1535.85298794717,1500,1687.766461432272,-40.153318346128074,-24.298879617298695,58.91535989207475
10.509516477584839,10.0,0.49612370465882094,-82.69093768612797,-12.0,-16.111279629240553,-12.590377706628434,-65.0,18.798537669657144,209.91178651875072,1513.735936364794,1537.2518102870617,1500,1646.4700732099673,-40.49612370465882,-23.888720370759447,61.201462330342856
10.544334411621094,8.0,0.761990143028676,-82.66440603690128,-11.0,-16.510464731079132,-13.16531670657389,-73.0,16.26988049775497,210.47834384649332,1511.097085515473,1538.0568101650276,1500,1623.2142602708059,-40.761990143028676,-23.489535268920868,63.73011950224503
10.579182863235474,5.0,0.9421907971539341,-82.63157124795198,-10.0,-16.857300623040448,-13.752614806125813,-68.0,13.90735717873983,210.962861079327,1507.5507441292814,1536.1143701631354,1500,1627.18387605346,-40.942190797153934,-23.142699376959552,66.09264282126017
10.614743947982788,9.0,1.2618429529799116,-82.58669874376326,-6.0,-17.086535036445476,-14.360246821584429,-50.0,12.113002762416812,211.39353751001818,1513.4640344673644,1530.4789524417104,1500,1659.5386475831688,-41.26184295297991,-22.913464963554524,67.88699723758319
10.649621963500977,9.0,1.5603751656819114,-82.5322707462064,-5.0,-17.247429689759908,-14.96141229172316,-51.0,10.347912466767355,211.75410922990736,1513.2246556289037,1528.0509689902908,1500,1654.3816448840369,-41.56037516568191,-22.752570310240092,69.65208753323265
10.693361520767212,8.0,1.9097504580057105,-82.44874001732421,-1.0,-17.302409925445705,-15.718207916285083,-27.0,9.187249955845658,212.15596204670354,1512.4293561304703,1522.4651269487285,1500,1702.835288326375,-41.90975045800571,-22.697590074554295,70.81275004415434
10.727701187133789,-5.0,1.7221178935122836,-82.3896042951718,-9.0,-17.615517903572865,-16.323144123168735,-96.0,5.902214976190422,212.3586210318441,1491.98870112303,1537.6766206810066,1500,1547.3287701888244,-41.722117893512284,-22.384482096427135,74.09778502380958
10.773035049438477,12.0,2.2453453079958763,-82.28782375612931,4.0,-17.425697740888115,-17.1136957959205,-10.0,5.449008891380558,212.6059561462678,1517.7021882207503,1514.538200670205,1500,1728.4932025456,-42.245345307995876,-22.574302259111885,74.55099110861944
10.816327810287476,5.0,2.467629397771681,-82.18099326674762,2.0,-17.351071328702417,-17.86482193561467,-33.0,4.014684447164299,212.77970931810285,1509.1074832328718,1518.5492725352092,1500,1674.7331418556823,-42.46762939777168,-22.648928671297583,75.9853155528357
10.853535890579224,14.0,2.9851345804240736,-82.06990932878972,8.0,-17.05618853460415,-18.49886439031953,3.0,4.122571803902673,212.9329293107937,1521.6257181242338,1508.6652642134188,1500,1753.0471695835458,-42.985134580424074,-22.94381146539585,75.87742819609733
10.888574600219727,9.0,3.2925426104661213,-81.9545452392926,7.0,-16.81376153046391,-19.08808909895218,-21.0,3.401272578446182,213.05211200049067,1515.2207572304267,1510.1296134642128,1500,1700.1492130098427,-43.29254261046612,-23.18623846953609,76.59872742155382
10.933591842651367,16.0,4.024244314703637,-81.77337718173655,13.0,-16.23236528119158,-19.818968615660765,21.0,4.353319122215538,213.24819436566233,1525.5279348746917,1500.7285934528327,1500,1793.5525507213988,-44.02424431470364,-23.76763471880842,75.64668087778446
10.973894596099854,13.0,4.543047573542594,-81.590286354357,14.0,-15.673907727809492,-20.45050956550419,8.0,4.658994044908553,213.43584913173527,1521.8124827631423,1498.7932956420407,1500,1764.9581150805243,-44.543047573542594,-24.326092272190508,75.34100595509145
11.009291410446167,-14.0,4.059774125177,-81.44657747580668,1.0,-15.651314069752885,-21.004501297650833,-89.0,1.5235474079959772,213.48977930945193,1482.0351790889238,1519.6244496768195,1500,1550.1813472056224,-44.059774125177,-24.348685930247115,78.47645259200402
11.044284105300903,-19.0,3.379174142514678,-81.32833187183455,-1.0,-15.68138441845307,-21.553223981305404,-104.0,-2.103172570419531,213.41619215787046,1471.1624123501322,1522.6528756962532,1500,1509.311996436885,-43.37917414251468,-24.31861558154693,82.10317257041953
11.08660626411438,16.0,4.0496932150250515,-81.15694204348661,20.0,-14.840199874421266,-22.18178154596713,32.0,-0.7419280333279943,213.3847659821805,1524.8647107568838,1489.7239812827183,1500,1803.8028782869956,-44.04969321502505,-25.159800125578734,80.741928033328
11.130254983901978,12.0,4.591417763952869,-80.95652706268353,19.0,-14.021293308126651,-22.79332838041422,23.0,0.251389586300391,213.39573018501395,1520.986452303051,1490.2074518382703,1500,1785.838785164447,-44.59141776395287,-25.97870669187335,79.74861041369961
11.165111303329468,21.0,5.337404505057307,-80.77049114902353,29.0,-13.010584657966557,-23.24726064834064,51.0,2.027732168703821,213.466524042618,1533.0065832151577,1475.9341033519888,1500,1854.387687229154,-45.33740450505731,-26.989415342033443,77.97226783129618
11.20816969871521,11.0,5.791419741755043,-80.52114261966923,20.0,-12.137345649565962,-23.76985501987214,19.0,2.855706558609299,213.58947256765427,1519.7718528851542,1486.027744190853,1500,1785.599641198786,-45.79141974175504,-27.86265435043404,77.1442934413907
11.242811918258667,9.0,6.092815448345448,-80.31004491646185,25.0,-11.286253546120328,-24.160502227325765,14.0,3.3256506631180685,213.70451397970066,1517.6734023292481,1479.009855351221,1500,1775.2976964105321,-46.09281544834545,-28.713746453879672,76.67434933688193
11.278236865997314,16.0,6.648307164164379,-80.07453532294063,29.0,-10.27049939849228,-24.52430964498843,37.0,4.62337484459546,213.8682747459774,1527.174838130111,1473.0318842198787,1500,1830.5935918939842,-46.64830716416438,-29.72950060150772,75.37662515540454
11.312765121459961,12.0,7.057780070650665,-79.83083912425025,27.0,-9.339817896712521,-24.846790582942383,22.0,5.386007796938998,214.05424419911392,1522.8438506327657,1473.9093114860366,1500,1800.785744013147,-47.057780070650665,-30.66018210328748,74.613992203061
11.355629920959473,7.0,7.349818980980778,-79.5157993689398,19.0,-8.511986792582722,-25.21169171963327,10.0,5.823912631437707,214.3039211481165,1516.487230204577,1483.2169317420048,1500,1774.9158883628745,-47.34981898098078,-31.48801320741728,74.17608736856229
11.39059329032898,-2.0,7.285750304744482,-79.26105283049337,18.0,-7.877211777515463,-25.487205122515252,-17.0,5.233998589454089,214.486997990677,1504.5659966344674,1483.5580498427523,1500,1714.567871553559,-47.28575030474448,-32.12278822248454,74.76600141054591
11.425713300704956,13.0,7.752233441511578,-78.98880909780235,28.0,-6.8869808910911345,-25.728984011754417,36.0,6.494921765522761,214.7149990573221,1525.112585872113,1470.0473156844037,1500,1835.2161440814207,-47.75223344151158,-33.113019108908865,73.50507823447724
11.461268186569214,16.0,8.314600389924408,-78.69322011232546,29.0,-5.843227359113371,-25.937037424254967,45.0,8.106866530580788,215.00381761981342,1528.7483639042243,1467.8698344428678,1500,1860.9347901599792,-48.31460038992441,-34.15677264088663,71.89313346941921
11.502344846725464,17.0,9.00613478870796,-78.32326314367931,27.0,-4.726115969937091,-26.131081467096614,51.0,10.203403301404393,215.42274960055084,1530.538327643219,1469.7625703840333,1500,1879.5813440257866,-49.00613478870796,-35.27388403006291,69.79659669859561
11.53686785697937,0.0,9.00923912308324,-78.01220701747334,14.0,-4.237426879194338,-26.277230779878426,-7.0,9.973426978698086,215.76653206178858,1509.1729307155772,1485.3427419138875,1500,1750.7241582783095,-49.00923912308324,-35.76257312080566,70.02657302130191
11.572036504745483,-14.0,8.523968508596248,-77.71242650688016,5.0,-4.063521434487811,-26.420147084450033,-53.0,8.098226069670233,216.05134537580093,1488.3730664056468,1498.0084835296577,1500,1645.235727536196,-48.52396850859625,-35.93647856551219,71.90177393032977
11.606982707977295,25.0,9.384395946962172,-77.38447526149548,33.0,-2.8944690226921708,-26.521288815927726,79.0,10.8564675612636,216.43071181374071,1539.8213462952888,1460.9923003293898,1500,1946.290274559775,-49.38439594696217,-37.10553097730783,69.1435324387364
11.64155387878418,1.0,9.412619124254519,-77.05907448629728,13.0,-2.4522201450895125,-26.60606961465844,-4.0,10.708012262292343,216.8009207585752,1510.6231775568401,1485.311179423875,1500,1759.0409113256833,-49.41261912425452,-37.54777985491049,69.29198773770766
11.685153484344482,16.0,10.121437050865055,-76.61778623631477,22.0,-1.5038900624631069,-26.671638986743222,49.0,12.856494226491819,217.36145883573855,1530.9080705998224,1473.5603616147678,1500,1884.501395845424,-50.121437050865055,-38.49610993753689,67.14350577350818
11.728049516677856,-0.0,10.104233761024666,-76.1843980608649,7.0,-1.2186725738550308,-26.72394949026875,-8.0,12.52334969627529,217.89924308008395,1509.7279139043892,1492.5100407967443,1500,1757.2260803220886,-50.104233761024666,-38.78132742614497,67.47665030372471
11.76327633857727,21.0,10.836225340979013,-75.80263869446948,25.0,-0.33455761327605416,-26.73572492113287,62.0,14.71732663371985,218.41698243854057,1536.9111515091074,1468.5158550916012,1500,1920.9612206127522,-50.83622534097901,-39.665442386723946,65.28267336628015
11.799206733703613,-13.0,10.352504522380855,-75.43069379872726,-5.0,-0.5198423446561691,-26.754416447507673,-52.0,12.843519387304767,218.87898491405952,1491.241129225273,1508.7179379416168,1500,1663.835218164032,-50.352504522380855,-39.48015765534383,67.15648061269523
11.834505558013916,12.0,10.790677892512726,-75.04979555561039,16.0,0.033475971425708906,-26.75323505643768,35.0,14.069290649683154,219.375493575183,1526.9878177896621,1479.5731743160734,1500,1857.2169696115238,-50.790677892512726,-40.03347597142571,65.93070935031685
11.869536638259888,19.0,11.44459169034193,-74.64887095991376,19.0,0.691118776593278,-26.7290146973575,54.0,15.965696425686616,219.93507085023458,1535.0888852764162,1475.419373373322,1500,1906.6930549635863,-51.44459169034193,-40.69111877659328,64.03430357431338
11.911968469619751,5.0,11.645668987911662,-74.15474055660903,5.0,0.9040661852561982,-26.690653944538905,8.0,16.2974327057267,220.62659688079194,1518.2388095628232,1492.5670735246283,1500,1804.5673323522738,-51.64566898791166,-40.9040661852562,63.7025672942733
11.947193145751953,14.0,12.142507207291295,-73.72702756779857,12.0,1.3325990785320556,-26.64371134956889,39.0,17.66483132925393,221.2488895944067,1530.3730939696002,1483.0216091425145,1500,1877.9844865841956,-52.142507207291295,-41.332599078532056,62.33516867074607
11.98247766494751,12.0,12.558064290423559,-73.28393428358747,8.0,1.6073542138371195,-26.586992796725617,28.0,18.647832987816365,221.9068827533904,1528.0740928757639,1488.3430459284587,1500,1856.9555242199876,-52.55806429042356,-41.60735421383712,61.352167012183635
12.025837182998657,7.0,12.845220880129268,-72.726907383639,2.0,1.7123278206878112,-26.51280587578532,11.0,19.143869570778953,222.73597496121855,1521.9459781832097,1495.2577615951736,1500,1822.722476511387,-52.84522088012927,-41.71232782068781,60.85613042922105
12.07093334197998,1.0,12.870468321780017,-72.1465723434464,-2.0,1.606401911401818,-26.440309700352277,-6.0,18.872092994307657,223.5879787532954,1514.0796015462042,1501.859777966811,1500,1784.5067703507548,-52.87046832178002,-41.60640191140182,61.12790700569234
12.105618953704834,17.0,13.458152634219708,-71.67968145245406,8.0,1.8808230191095916,-26.37514036370734,44.0,20.400838177344674,224.2944561434853,1535.10635320013,1488.1462912229165,1500,1900.6913733694855,-53.45815263421971,-41.88082301910959,59.599161822655326
12.140841960906982,14.0,13.938479426366918,-71.18877613911904,4.0,2.0230289540554764,-26.30381663906745,32.0,21.519314681594857,225.05352906884835,1531.7273611615426,1492.945015486966,1500,1876.8525702679297,-53.93847942636692,-42.023028954055476,58.48068531840514
12.175936937332153,-4.0,13.788592340077457,-70.70487239092093,-12.0,1.5947622505345862,-26.247850016364985,-31.0,20.42995462209319,225.770498361155,1508.6953634023089,1515.896971947775,1500,1737.6386853721283,-53.78859234007746,-41.594762250534586,59.57004537790681
12.211044311523438,7.0,14.047248607154195,-70.21170702858652,-4.0,1.4549598051815664,-26.19678025784523,7.0,20.681974843592208,226.49616412783698,1524.325653404736,1504.1960149076256,1500,1822.1208155087263,-54.047248607154195,-41.454959805181566,59.31802515640779
12.255671262741089,-47.0,11.95482927687857,-69.67821084664554,-43.0,-0.4601296591064781,-26.217319926868946,-164.0,13.34745915794393,227.0921960458633,1434.99062371948,1574.0464877583865,1500,1480.0,-51.95482927687857,-39.53987034089352,66.65254084205607
12.294059991836548,24.0,12.863468270632751,-69.18440171486601,6.0,-0.21583491185555204,-26.225604731484662,56.0,15.505966983271364,227.6874023519092,1542.8469982170686,1492.4449604735676,1500,1918.7504673298206,-52.86346827063275,-39.78416508814445,64.49403301672864
12.328593492507935,21.0,13.605529118971475,-68.71449677730487,2.0,-0.15944628794617444,-26.2311065982564,45.0,17.04063984993863,228.2750505501645,1541.2692570241798,1498.442913942977,1500,1897.7202745512966,-53.605529118971475,-39.840553712053826,62.95936015006137
12.36394453048706,2.0,13.674448827853801,-68.23108429696248,-13.0,-0.6239999688634299,-26.253164900988736,-20.0,16.351234062998913,228.85308754496916,1517.2532117378844,1519.58523091839,1500,1755.779518199044,-53.6744488278538,-39.37600003113657,63.64876593700109
12.399763345718384,9.0,14.011887740323964,-67.7292418486709,-6.0,-0.8236524032476353,-26.282685417020815,8.0,16.65212205131086,229.4501939665049,1527.175104557079,1508.8737556203732,1500,1817.6587950575586,-54.011887740323964,-39.176347596752365,63.34787794868914
12.435475826263428,9.0,14.350941565185558,-67.21675123487663,-7.0,-1.0910580137589605,-26.32165786909424,6.0,16.88424970937318,230.0532891458145,1527.6976273880205,1511.7828877081647,1500,1815.122007419776,-54.35094156518556,-38.90894198624104,63.11575029062682
12.470319986343384,10.0,14.701877206538107,-66.70449069281885,-9.0,-1.3962331798605234,-26.37030244953949,5.0,17.048130545908272,230.64726816052737,1528.9201183806915,1513.8680132162442,1500,1812.6936896809855,-54.70187720653811,-38.60376682013948,62.95186945409173
12.50485897064209,2.0,14.788103967097285,-66.19362588084705,-15.0,-1.9086393987687487,-26.436168488933866,-20.0,16.37543503207437,231.21207040397826,1519.2960569972984,1523.409025689207,1500,1759.0788134093918,-54.788103967097285,-38.09136060123125,63.62456496792563
12.549347400665283,-11.0,14.313601536471204,-65.55686693416874,-21.0,-2.849724762761163,-26.56294691077267,-57.0,13.833686216088338,231.8274994905421,1500.3276842462974,1535.0515206046805,1500,1672.652992505946,-54.313601536471204,-37.15027523723884,66.16631378391166
12.585424423217773,-36.0,13.025573913875348,-65.08693369370225,-41.0,-4.340521691640106,-26.719595892226316,-141.0,8.750107461531996,232.1432816241779,1456.9265049668281,1574.7204218589234,1500,1492.987452048336,-53.02557391387535,-35.659478308359894,71.249892538468
12.61979866027832,-18.0,12.399463777581772,-64.66070863012546,-30.0,-5.365695332194143,-26.90398896287446,-86.0,5.801375746234669,232.34265246206036,1486.2247758413964,1553.414980405183,1500,1594.1444965402943,-52.39946377758177,-34.63430466780586,74.19862425376533
12.655311107635498,-17.0,11.813138511530333,-64.24125713298906,-26.0,-6.297991097429808,-27.12786526765885,-76.0,3.1037980841839783,232.45304094883002,1488.237859890341,1548.6063157278345,1500,1607.1226148225794,-51.81313851153033,-33.70200890257019,76.89620191581602
12.690496921539307,16.0,12.363248127757664,-63.806169546789825,-6.0,-6.520726337062371,-27.35707224105081,24.0,3.951262227093011,232.59185076963408,1533.7692961501393,1516.175188210651,1500,1822.2735769815592,-52.363248127757664,-33.47927366293763,76.04873777290699
12.725882291793823,-18.0,11.73405575597414,-63.39096682974514,-27.0,-7.471859891948519,-27.621454299805748,-78.0,1.1983858828199772,232.63425752639276,1486.1234758983242,1551.3591715836942,1500,1598.7611462834734,-51.73405575597414,-32.52814010805148,78.80161411718002
12.761080265045166,18.0,12.378746849178007,-62.95531020175762,-6.0,-7.666901108685025,-27.89154034347682,28.0,2.1842076998736246,232.71123823719336,1537.3512604773557,1516.3242897955333,1500,1826.637494090556,-52.37874684917801,-32.333098891314975,77.81579230012638
12.796793937683105,7641.0,285.27682950295446,-52.766822855810815,7794.0,270.6950909353719,-18.223185477507336,8670.0,311.8540959365232,243.84988295923796,1600.0,1400.0,1500,2050.0,-325.27682950295446,-310.6950909353719,-231.85409593652324
12.839511394500732,-1725.0,211.5971707493721,-43.728081197682855,-1774.0,194.92852632263148,-9.896566944708027,-1997.0,226.54126104502816,253.52687943711186,1600.0,1600.0,1500,2050.0,-251.5971707493721,-234.92852632263148,-146.54126104502816
12.874558925628662,-1568.0,156.63207501340685,-38.238663049005325,-1601.0,138.80630169350053,-5.029399091265641,-1872.0,160.90621636103504,259.16981282562966,1600.0,1600.0,1500,2050.0,-196.63207501340685,-178.80630169350053,-80.90621636103504
12.909167051315308,-1145.0,116.99711802295474,-34.189249457765314,-1183.0,97.91529124736704,-1.6438392468055931,-1343.0,114.48086727227268,263.12673161124843,1600.0,1600.0,1500,2050.0,-156.99711802295474,-137.91529124736704,-34.480867272272675
12.954447984695435,-626.0,88.63595226934024,-30.17545608602184,-653.0,68.28498243203218,1.4528572512061966,-711.0,82.25749417916829,266.8560757016187,1400.0,1600.0,1500,2050.0,-128.63595226934024,-108.28498243203218,-2.257494179168291
12.989683628082275,-568.0,68.60769142593202,-27.758363441657693,-608.0,46.900098662897534,3.1028853032961616,-613.0,60.67714041533022,268.9920339984047,1400.0,1600.0,1500,2050.0,-108.60769142593202,-86.90009866289753,19.32285958466978
13.024927616119385,-454.0,52.61625823294648,-25.903944121244745,-465.0,30.49436097882912,4.177737253166538,-557.0,41.0539005082937,270.4390644209598,1400.0,1600.0,1500,2050.0,-92.61625823294648,-70.49436097882912,38.9460994917063
13.068134069442749,-273.0,40.84206599896825,-24.139371465581963,-279.0,18.424595684919566,4.973785508331103,-337.0,26.49313476225838,271.583543001333,1400.0,1600.0,1500,1914.4445229934051,-80.84206599896825,-58.42459568491957,53.50686523774162
13.110877513885498,-212.0,31.789913257605747,-22.78056107441568,-213.0,9.32875993403264,5.372493253896158,-278.0,14.600715178234353,272.20766963235945,1400.0,1600.0,1500,1720.017694802509,-71.78991325760575,-49.32875993403264,65.39928482176565
13.145578384399414,-191.0,25.167077278496137,-21.907079576493135,-192.0,2.6799000041170444,5.465408249685377,-249.0,5.989266238679534,272.4152067984455,1400.0,1600.0,1500,1686.5700770933072,-65.16707727849614,-42.679900004117044,74.01073376132047
13.188905954360962,-101.0,20.804302523539825,-21.005694583799997,-106.0,-1.9143949535978635,5.382460799117358,-113.0,1.1146237532828707,272.46350153433775,1400.0,1600.0,1500,1667.4766765153875,-60.804302523539825,-38.08560504640214,78.88537624671713
13.231483459472656,-86.0,17.139673142816086,-20.275938235782007,-83.0,-5.446151748165271,5.150565559046936,-113.0,-3.70085835667831,272.30592027755813,1400.0,1600.0,1500,1621.4523065368207,-57.139673142816086,-34.55384825183473,83.70085835667831
13.266091585159302,-95.0,13.862145649669614,-19.796264761706105,-82.0,-8.298670639125483,4.863093060191083,-154.0,-9.029616930735656,271.99295499614584,1400.0,1600.0,1500,1536.8546349277206,-53.862145649669614,-31.701329360874517,89.02961693073566
13.301350355148315,-61.0,11.725849917046965,-19.38288162976477,-53.0,-10.1616405286975,4.504241619410886,-86.0,-12.050699125761241,271.56739560581326,1420.665871267684,1593.2005338095296,1500,1618.9181165885134,-51.725849917046965,-29.8383594713025,92.05069912576124
13.336549282073975,-44.0,10.172040668071055,-19.02476880790699,-32.0,-11.297755481411123,4.1072165189560605,-68.0,-14.439470704807235,271.05999894851357,1445.0653471104556,1562.8084687733315,1500,1630.2514423762739,-50.172040668071055,-28.702244518588877,94.43947070480723
